[
  {
    "name": "泰给力·泰国无限自助烤肉(大十字店)",
    "type": "烧烤",
    "lng": 106.712748,
    "lat": 26.57696,
    "rating": 4.8,
    "cost": 70.0,
    "address": "文昌阁街道中山东路2号2层1号A-2"
  },
  {
    "name": "笔记安顺夺夺粉",
    "type": "特色餐饮",
    "lng": 106.713915,
    "lat": 26.575193,
    "rating": 4.8,
    "cost": 63.0,
    "address": "醒狮路18号小区西北门旁"
  },
  {
    "name": "DuideCoffee对的",
    "type": "咖啡馆",
    "lng": 106.709518,
    "lat": 26.576939,
    "rating": 4.8,
    "cost": 54.0,
    "address": "恒力大厦1栋1层1-2号"
  },
  {
    "name": "马老三烤吧(兴关路店)",
    "type": "烧烤",
    "lng": 106.71346,
    "lat": 26.563362,
    "rating": 4.7,
    "cost": 71.0,
    "address": "兴关北巷8号"
  },
  {
    "name": "阿亲家.韩式无限烤肉(南明小十字店)",
    "type": "烧烤",
    "lng": 106.714873,
    "lat": 26.576847,
    "rating": 4.7,
    "cost": 72.0,
    "address": "富水南路中山大厦B座1楼1号"
  },
  {
    "name": "罗小二贵州烙锅烤肉(甲秀楼总店)",
    "type": "烧烤",
    "lng": 106.71761,
    "lat": 26.574425,
    "rating": 4.7,
    "cost": 55.0,
    "address": "护国商住楼103号"
  },
  {
    "name": "烟厂烤肉",
    "type": "烧烤",
    "lng": 106.700674,
    "lat": 26.574087,
    "rating": 4.7,
    "cost": 37.0,
    "address": "花溪大道北段与如意巷交叉口北220米"
  },
  {
    "name": "COSMOS葡萄酒馆(青云市集店)",
    "type": "酒吧",
    "lng": 106.716671,
    "lat": 26.565816,
    "rating": 4.7,
    "cost": 60.0,
    "address": "瑞金南路372号贵龙饭店旁红砖房"
  },
  {
    "name": "NICO酒吧",
    "type": "酒吧",
    "lng": 106.710158,
    "lat": 26.578449,
    "rating": 4.7,
    "cost": 78.0,
    "address": "国贸置业大厦3F(中山西路地铁站F口步行120米)"
  },
  {
    "name": "Helens海伦司(都市名园店)",
    "type": "酒吧",
    "lng": 106.710368,
    "lat": 26.579013,
    "rating": 4.7,
    "cost": 46.0,
    "address": "都市名园8号1层(人民大道北段)"
  },
  {
    "name": "贵厨酸汤牛肉(甲秀楼店)",
    "type": "火锅",
    "lng": 106.716881,
    "lat": 26.572154,
    "rating": 4.7,
    "cost": 65.0,
    "address": "富水南路荔星名店A馆2楼"
  },
  {
    "name": "陈氏人家豆米火锅(甲秀楼店)",
    "type": "火锅",
    "lng": 106.715949,
    "lat": 26.573896,
    "rating": 4.7,
    "cost": 44.0,
    "address": "富水南路泰祥国际负3楼"
  },
  {
    "name": "黔诚·多彩火锅(甲秀楼店)",
    "type": "火锅",
    "lng": 106.715865,
    "lat": 26.574048,
    "rating": 4.7,
    "cost": 70.0,
    "address": "富水南路186号泰祥国际负一楼"
  },
  {
    "name": "贵厨酸汤牛肉(青云市集店)",
    "type": "火锅",
    "lng": 106.714574,
    "lat": 26.56412,
    "rating": 4.7,
    "cost": 60.0,
    "address": "青云路与兴关路交叉口东南140米"
  },
  {
    "name": "黔大叔大牌档(甲秀楼店)",
    "type": "特色餐饮",
    "lng": 106.715733,
    "lat": 26.573972,
    "rating": 4.7,
    "cost": 60.0,
    "address": "富水南路186号泰祥国际B1层"
  },
  {
    "name": "衔雪&猫咖啡",
    "type": "咖啡馆",
    "lng": 106.714934,
    "lat": 26.57672,
    "rating": 4.7,
    "cost": 55.0,
    "address": "富水南路232号中山大厦B座2楼(饼饼如意旁进电梯)"
  },
  {
    "name": "聚君缘烙锅",
    "type": "烧烤",
    "lng": 106.717081,
    "lat": 26.580919,
    "rating": 4.7,
    "cost": 53.0,
    "address": "文明路18号114"
  },
  {
    "name": "丁孃孃火锅",
    "type": "火锅",
    "lng": 106.719296,
    "lat": 26.583651,
    "rating": 4.7,
    "cost": 86.0,
    "address": "文昌北路九华路3号"
  },
  {
    "name": "唐记豆米火锅",
    "type": "火锅",
    "lng": 106.723411,
    "lat": 26.586015,
    "rating": 4.7,
    "cost": 59.0,
    "address": "旭东路101号"
  },
  {
    "name": "重庆舒炳记老火锅(文昌阁旗舰店)",
    "type": "火锅",
    "lng": 106.719217,
    "lat": 26.577737,
    "rating": 4.7,
    "cost": 49.0,
    "address": "文昌南路79号文昌苑综合楼A栋B1层6号距官井路与交叉口20m"
  },
  {
    "name": "胖墩墩地摊火锅(亨特店)",
    "type": "火锅",
    "lng": 106.719085,
    "lat": 26.577007,
    "rating": 4.7,
    "cost": 29.0,
    "address": "文昌南路79号文昌苑综合楼A栋单元负一层18号"
  },
  {
    "name": "老凯俚酸汤鱼(省府店)",
    "type": "火锅",
    "lng": 106.715102,
    "lat": 26.580354,
    "rating": 4.7,
    "cost": 107.0,
    "address": "省府路石板街55号"
  },
  {
    "name": "胡子哥餐厅",
    "type": "火锅",
    "lng": 106.717655,
    "lat": 26.576889,
    "rating": 4.7,
    "cost": 80.0,
    "address": "护国路42号(名士花园正对面20米)"
  },
  {
    "name": "seekseeking",
    "type": "特色餐饮",
    "lng": 106.716724,
    "lat": 26.582286,
    "rating": 4.7,
    "cost": 19.0,
    "address": "省府社区服务中心省府北街5号堰塘街3号院"
  },
  {
    "name": "CaptainGeorge(乔治队长文昌店)",
    "type": "咖啡馆",
    "lng": 106.719813,
    "lat": 26.578769,
    "rating": 4.7,
    "cost": 53.0,
    "address": "文昌北路文昌阁1-4号"
  },
  {
    "name": "贵厨酸汤牛肉(逸天城店)",
    "type": "火锅",
    "lng": 106.722989,
    "lat": 26.562791,
    "rating": 4.7,
    "cost": 67.0,
    "address": "逸天城生活美学购物中心4楼"
  },
  {
    "name": "爆单重庆老火锅",
    "type": "火锅",
    "lng": 106.731522,
    "lat": 26.562458,
    "rating": 4.7,
    "cost": 91.0,
    "address": "宝山南路187号(油榨街地铁站A口步行30米)"
  },
  {
    "name": "树厨地道黔菜餐厅(青云市集店)",
    "type": "特色餐饮",
    "lng": 106.715759,
    "lat": 26.563399,
    "rating": 4.7,
    "cost": 53.0,
    "address": "青云路83号青云市集1楼一层商铺"
  },
  {
    "name": "陈氏人家豆米火锅(黔灵山公园店)",
    "type": "火锅",
    "lng": 106.699354,
    "lat": 26.585404,
    "rating": 4.7,
    "cost": 52.0,
    "address": "威清路119号1-2层"
  },
  {
    "name": "贵厨酸汤牛肉(汇金星力城店)",
    "type": "火锅",
    "lng": 106.70202,
    "lat": 26.581297,
    "rating": 4.7,
    "cost": 64.0,
    "address": "新建路1号汇金星力城F6层"
  },
  {
    "name": "海底捞火锅(汇金星力城店)",
    "type": "火锅",
    "lng": 106.702252,
    "lat": 26.581553,
    "rating": 4.7,
    "cost": 102.0,
    "address": "延安西路66号汇金国际广场五层"
  },
  {
    "name": "土家风味豆米火锅·干锅剔骨鸡(黔灵山公园店)",
    "type": "火锅",
    "lng": 106.699229,
    "lat": 26.587649,
    "rating": 4.7,
    "cost": 42.0,
    "address": "北京路260号3层21号"
  },
  {
    "name": "叉叉陈 · 酸汤夺夺粉火锅",
    "type": "火锅",
    "lng": 106.705808,
    "lat": 26.585514,
    "rating": 4.7,
    "cost": 39.0,
    "address": "城基路139号"
  },
  {
    "name": "Captain George乔治队长(太平路店)",
    "type": "咖啡馆",
    "lng": 106.710736,
    "lat": 26.581899,
    "rating": 4.7,
    "cost": 43.0,
    "address": "太平路40号(喷水池地铁站G口步行240米)"
  },
  {
    "name": "烙锅8(青云路店)",
    "type": "烧烤",
    "lng": 106.713927,
    "lat": 26.564352,
    "rating": 4.6,
    "cost": 37.0,
    "address": "兴关路街道南明区兴关路11号A幢1层6号"
  },
  {
    "name": "花园烧烤",
    "type": "烧烤",
    "lng": 106.717614,
    "lat": 26.57393,
    "rating": 4.6,
    "cost": 81.0,
    "address": "下护国路ABC栋负二层"
  },
  {
    "name": "正山老贵阳铁钎烤肉",
    "type": "烧烤",
    "lng": 106.71433,
    "lat": 26.577495,
    "rating": 4.6,
    "cost": 65.0,
    "address": "中山东路正山街附1号(中山西路地铁站E口步行450米)"
  },
  {
    "name": "克林Cling",
    "type": "酒吧",
    "lng": 106.713574,
    "lat": 26.574036,
    "rating": 4.6,
    "cost": 71.0,
    "address": "科学路1号"
  },
  {
    "name": "SunShine SUMMER叁夏Live(大十字店)",
    "type": "酒吧",
    "lng": 106.711276,
    "lat": 26.575793,
    "rating": 4.6,
    "cost": 77.0,
    "address": "中华南路街道市府路1号懿府负一层1E号"
  },
  {
    "name": "回春Live",
    "type": "酒吧",
    "lng": 106.716127,
    "lat": 26.572771,
    "rating": 4.6,
    "cost": 77.0,
    "address": "中华南路街道富水南路2号5幢1层"
  },
  {
    "name": "大冰的小屋(贵阳分舵青云路店)",
    "type": "酒吧",
    "lng": 106.717482,
    "lat": 26.564739,
    "rating": 4.6,
    "cost": 60.0,
    "address": "青云路1号金熙府"
  },
  {
    "name": "春丽和金刚show(河东路店)",
    "type": "酒吧",
    "lng": 106.711047,
    "lat": 26.579159,
    "rating": 4.6,
    "cost": 50.0,
    "address": "河东路3号(中山西路地铁站F口步行260米)"
  },
  {
    "name": "BANANA R&B BAR小十字店(香蕉酒吧)",
    "type": "酒吧",
    "lng": 106.715989,
    "lat": 26.577862,
    "rating": 4.6,
    "cost": 85.0,
    "address": "富水中路6号世纪文化广场"
  },
  {
    "name": "春丽和金刚小酒馆(大十字广场店)",
    "type": "酒吧",
    "lng": 106.712181,
    "lat": 26.579798,
    "rating": 4.6,
    "cost": 58.0,
    "address": "文昌阁街道省府西路3号峰会国际B栋3楼"
  },
  {
    "name": "兮禾酒馆(护国路店)",
    "type": "酒吧",
    "lng": 106.718427,
    "lat": 26.577204,
    "rating": 4.6,
    "cost": 99.0,
    "address": "大南社区服务中心中山东路75号上护国路尚武小区"
  },
  {
    "name": "大虎老火锅(博爱路店)",
    "type": "火锅",
    "lng": 106.711561,
    "lat": 26.572013,
    "rating": 4.6,
    "cost": 60.0,
    "address": "博爱路31号(豪客来旁)"
  },
  {
    "name": "秦大丫贵州酸汤夺夺粉火锅(青云路店)",
    "type": "火锅",
    "lng": 106.71357,
    "lat": 26.564368,
    "rating": 4.6,
    "cost": 35.0,
    "address": "兴关路11号A栋"
  },
  {
    "name": "他先生豆米豆豉酸辣烫火锅(青云市集店)",
    "type": "火锅",
    "lng": 106.713582,
    "lat": 26.564283,
    "rating": 4.6,
    "cost": 41.0,
    "address": "兴关社区服务中心兴关路41号"
  },
  {
    "name": "田记合味馆豆豉粑火锅(市府路店)",
    "type": "火锅",
    "lng": 106.708362,
    "lat": 26.576573,
    "rating": 4.6,
    "cost": 59.0,
    "address": "市府路72号门市"
  },
  {
    "name": "陈氏人家豆米火锅(青云路店)",
    "type": "火锅",
    "lng": 106.713396,
    "lat": 26.563967,
    "rating": 4.6,
    "cost": 58.0,
    "address": "兴关路街道兴关路11号"
  },
  {
    "name": "小娴·番茄鸡(大南门店)",
    "type": "火锅",
    "lng": 106.716782,
    "lat": 26.573395,
    "rating": 4.6,
    "cost": 68.0,
    "address": "正谊路2号2幢1号"
  },
  {
    "name": "陈氏人家豆米火锅(青云市集店)",
    "type": "火锅",
    "lng": 106.715639,
    "lat": 26.564841,
    "rating": 4.6,
    "cost": 45.0,
    "address": "青云路步行街"
  },
  {
    "name": "太平路夜市小吃街",
    "type": "夜市",
    "lng": 106.711067,
    "lat": 26.582842,
    "rating": 4.6,
    "cost": 33.0,
    "address": "大同街11号(喷水池地铁站G口步行130米)"
  },
  {
    "name": "8号花园餐厅(甲秀楼店)",
    "type": "特色餐饮",
    "lng": 106.715619,
    "lat": 26.570422,
    "rating": 4.6,
    "cost": 74.0,
    "address": "中南社区服务中心阳明路8号公馆4楼"
  },
  {
    "name": "南明区云上花园餐厅(东方明珠店)",
    "type": "特色餐饮",
    "lng": 106.709248,
    "lat": 26.575423,
    "rating": 4.6,
    "cost": 69.0,
    "address": "东方明珠大厦五楼(中山西路地铁站C口步行100米)"
  },
  {
    "name": "Seekseeking(荔星名店A馆)",
    "type": "咖啡馆",
    "lng": 106.716365,
    "lat": 26.572114,
    "rating": 4.6,
    "cost": 26.0,
    "address": "富水南路196号贵州国际商城裙楼1层"
  },
  {
    "name": "星巴克(贵阳大十字智诚百货店)",
    "type": "咖啡馆",
    "lng": 106.712996,
    "lat": 26.577271,
    "rating": 4.6,
    "cost": 30.0,
    "address": "中山东路2号智诚百货大楼1层1A08单元"
  },
  {
    "name": "JUJU·小人物集合站咖啡馆",
    "type": "咖啡馆",
    "lng": 106.715914,
    "lat": 26.576934,
    "rating": 4.6,
    "cost": 31.0,
    "address": "白沙巷10-2-1-4号"
  },
  {
    "name": "一统烤肉(华珠花园店)",
    "type": "烧烤",
    "lng": 106.717011,
    "lat": 26.579105,
    "rating": 4.6,
    "cost": 68.0,
    "address": "蔡家街30号"
  },
  {
    "name": "顺友烤肉(市东路店)",
    "type": "烧烤",
    "lng": 106.721273,
    "lat": 26.576446,
    "rating": 4.6,
    "cost": 30.0,
    "address": "市东路35号1单元附2号"
  },
  {
    "name": "熊宝烤肉(喷水池店)",
    "type": "烧烤",
    "lng": 106.715073,
    "lat": 26.584751,
    "rating": 4.6,
    "cost": 67.0,
    "address": "贵州物资大厦(延安东路南)"
  },
  {
    "name": "罗小二贵州百年烙锅烤肉(喷水池店)",
    "type": "烧烤",
    "lng": 106.714834,
    "lat": 26.584721,
    "rating": 4.6,
    "cost": 64.0,
    "address": "延安东路28号(喷水池地铁站H口步行310米)"
  },
  {
    "name": "尹珍珠·韩式无限烤肉(喷水池店)",
    "type": "烧烤",
    "lng": 106.714,
    "lat": 26.58273,
    "rating": 4.6,
    "cost": 67.0,
    "address": "阁街道富水北路青禾丽人时装城北门"
  },
  {
    "name": "三口百味烤鸡",
    "type": "烧烤",
    "lng": 106.715894,
    "lat": 26.587338,
    "rating": 4.6,
    "cost": 70.0,
    "address": "黔灵东路斑马线处"
  },
  {
    "name": "葫芦烤鸡",
    "type": "烧烤",
    "lng": 106.715496,
    "lat": 26.587172,
    "rating": 4.6,
    "cost": 65.0,
    "address": "黔灵东路81号"
  },
  {
    "name": "榕江牛瘪牛肉火锅",
    "type": "火锅",
    "lng": 106.72179,
    "lat": 26.580854,
    "rating": 4.6,
    "cost": 68.0,
    "address": "东新路15-1-1号(中医一附院后门附近)"
  },
  {
    "name": "烫小嘴火锅",
    "type": "火锅",
    "lng": 106.718937,
    "lat": 26.581706,
    "rating": 4.6,
    "cost": 77.0,
    "address": "文昌阁街道文昌北路君子巷50号"
  },
  {
    "name": "陈氏人家豆米火锅(文昌阁店)",
    "type": "火锅",
    "lng": 106.719785,
    "lat": 26.579014,
    "rating": 4.6,
    "cost": 51.0,
    "address": "文昌北路宏泰文锦阁B区2-2号门面"
  },
  {
    "name": "熊二娘·豆豉豆米火锅(民生路店)",
    "type": "火锅",
    "lng": 106.716989,
    "lat": 26.580041,
    "rating": 4.6,
    "cost": 47.0,
    "address": "民生路81号-120"
  },
  {
    "name": "牛锅(护国路店)",
    "type": "火锅",
    "lng": 106.717984,
    "lat": 26.576358,
    "rating": 4.6,
    "cost": 62.0,
    "address": "护国路50-3-1-1号(大南社区)"
  },
  {
    "name": "毛辣果虾酸牛肉(甲秀楼店)",
    "type": "火锅",
    "lng": 106.717748,
    "lat": 26.57627,
    "rating": 4.6,
    "cost": 71.0,
    "address": "护国路180号2层2单元2号"
  },
  {
    "name": "金牌罗记肠旺面(蔡家街店)",
    "type": "特色餐饮",
    "lng": 106.717421,
    "lat": 26.578351,
    "rating": 4.6,
    "cost": 17.0,
    "address": "蔡家街与中山东路交叉口建设银行旁"
  },
  {
    "name": "克服一哈 KEFU·HA",
    "type": "咖啡馆",
    "lng": 106.719913,
    "lat": 26.580605,
    "rating": 4.6,
    "cost": 41.0,
    "address": "环城东路480号2单元1层1号"
  },
  {
    "name": "慕昔提咖啡(亨特店)",
    "type": "咖啡馆",
    "lng": 106.71955,
    "lat": 26.577529,
    "rating": 4.6,
    "cost": 38.0,
    "address": "市东路15号官井路社区"
  },
  {
    "name": "Quantic Espresso coffee 咖啡多项式",
    "type": "咖啡馆",
    "lng": 106.7185,
    "lat": 26.577673,
    "rating": 4.6,
    "cost": 27.0,
    "address": "中华南路街道护国路尚武社区3栋3单元8-9号底层(中南办事处)"
  },
  {
    "name": "黑石咖啡厅",
    "type": "咖啡馆",
    "lng": 106.717354,
    "lat": 26.578615,
    "rating": 4.6,
    "cost": 41.0,
    "address": "蔡家街商住楼2单元2楼"
  },
  {
    "name": "胡豆咖啡FUDOU COFFEE",
    "type": "咖啡馆",
    "lng": 106.71564,
    "lat": 26.580124,
    "rating": 4.6,
    "cost": 45.0,
    "address": "文昌阁街道省府路贵山街1号贵山苑C栋-3号"
  },
  {
    "name": "星巴克臻选贵阳亨特城市广场店",
    "type": "咖啡馆",
    "lng": 106.719387,
    "lat": 26.576447,
    "rating": 4.6,
    "cost": 44.0,
    "address": "贵州省机场路18号亨特城市广场负二层1B号铺"
  },
  {
    "name": "星巴克(智诚名店)",
    "type": "咖啡馆",
    "lng": 106.713414,
    "lat": 26.584909,
    "rating": 4.6,
    "cost": 26.0,
    "address": "延安东路3号智诚名店1楼星巴克"
  },
  {
    "name": "彭记留一手特色烤鱼",
    "type": "烧烤",
    "lng": 106.733085,
    "lat": 26.560654,
    "rating": 4.6,
    "cost": 46.0,
    "address": "油榨街华光眼镜巷子里(油榨街地铁站A口步行350米)"
  },
  {
    "name": "董家毛肚(解放路店)",
    "type": "火锅",
    "lng": 106.715876,
    "lat": 26.560616,
    "rating": 4.6,
    "cost": 86.0,
    "address": "解放路260号"
  },
  {
    "name": "新大新豆米火锅1993(青云市集店)",
    "type": "火锅",
    "lng": 106.715674,
    "lat": 26.56402,
    "rating": 4.6,
    "cost": 56.0,
    "address": "集里1-27号酒吧街"
  },
  {
    "name": "煮意现舂鲜货火锅(南浦路店)",
    "type": "火锅",
    "lng": 106.724756,
    "lat": 26.566215,
    "rating": 4.6,
    "cost": 80.0,
    "address": "南浦路17号(鲤精膳旁边)"
  },
  {
    "name": "星巴克臻选(贵阳保利国贸逸天城店)",
    "type": "咖啡馆",
    "lng": 106.722815,
    "lat": 26.562802,
    "rating": 4.6,
    "cost": 39.0,
    "address": "市南路42号国贸逸天城购物中心6号楼地上1层1单元"
  },
  {
    "name": "星巴克(贵阳鸿通城店)",
    "type": "咖啡馆",
    "lng": 106.70927,
    "lat": 26.558995,
    "rating": 4.6,
    "cost": 36.0,
    "address": "解放路100号鸿通城购物中心C区地上一层L1C19-L1C20单元"
  },
  {
    "name": "筑臻味老贵阳铁签烤牛肉",
    "type": "烧烤",
    "lng": 106.703524,
    "lat": 26.580575,
    "rating": 4.6,
    "cost": 55.0,
    "address": "新建路58号(紫林庵地铁站F口步行150米)"
  },
  {
    "name": "罗小二贵州百年烙锅烤肉(飞山街店)",
    "type": "烧烤",
    "lng": 106.70644,
    "lat": 26.58003,
    "rating": 4.6,
    "cost": 63.0,
    "address": "飞山街祥源大厦CD栋1层3号"
  },
  {
    "name": "杨记烤肉",
    "type": "烧烤",
    "lng": 106.704755,
    "lat": 26.587017,
    "rating": 4.6,
    "cost": 39.0,
    "address": "中环社区服务中心瑞金北路128号附4号"
  },
  {
    "name": "市集Fair no stage(烟厂店)",
    "type": "酒吧",
    "lng": 106.699037,
    "lat": 26.575637,
    "rating": 4.6,
    "cost": 72.0,
    "address": "市西河街道花香村如意巷10号智谷科技文化创意产业园文体专区项目发酵间1"
  },
  {
    "name": "Hideout藏身所",
    "type": "酒吧",
    "lng": 106.711058,
    "lat": 26.581937,
    "rating": 4.6,
    "cost": 80.0,
    "address": "毓秀街道太平路4号小吃楼负一层1号"
  },
  {
    "name": "杨丫老鸭汤(威清路总店)",
    "type": "火锅",
    "lng": 106.701245,
    "lat": 26.585681,
    "rating": 4.6,
    "cost": 58.0,
    "address": "威清路52号(贵阳云岩希尔顿欢朋酒店西80米)"
  },
  {
    "name": "老字号何姨妈豆豉火锅",
    "type": "火锅",
    "lng": 106.701736,
    "lat": 26.587063,
    "rating": 4.6,
    "cost": 47.0,
    "address": "鲤鱼路51号"
  },
  {
    "name": "贵府酸汤牛肉火锅(飞山街店)",
    "type": "火锅",
    "lng": 106.706514,
    "lat": 26.580051,
    "rating": 4.6,
    "cost": 53.0,
    "address": "飞山街214号(紫林庵地铁站B口步行350米)"
  },
  {
    "name": "小肥猪地摊火锅·跻夔(城基路店)",
    "type": "火锅",
    "lng": 106.706743,
    "lat": 26.584545,
    "rating": 4.6,
    "cost": 29.0,
    "address": "毓秀街道清禾街12号A幢1层2号"
  },
  {
    "name": "大中小寻味生活餐厅(山林路店)",
    "type": "特色餐饮",
    "lng": 106.702014,
    "lat": 26.582991,
    "rating": 4.6,
    "cost": 64.0,
    "address": "山林路37号(延安西路地铁站E口步行370米)"
  },
  {
    "name": "響 Livehouse (贵阳店)",
    "type": "酒吧",
    "lng": 106.689168,
    "lat": 26.568624,
    "rating": 4.6,
    "cost": 91.0,
    "address": "花果园大街1号花果园购物中心3楼302室"
  },
  {
    "name": "贵厨酸汤牛肉(贵阳万象城旗舰店)",
    "type": "火锅",
    "lng": 106.702511,
    "lat": 26.560946,
    "rating": 4.6,
    "cost": 72.0,
    "address": "遵义路328号贵阳万象城L4层"
  },
  {
    "name": "陈氏人家豆米火锅(鸿通城)",
    "type": "火锅",
    "lng": 106.707575,
    "lat": 26.556975,
    "rating": 4.6,
    "cost": 54.0,
    "address": "鸿通城购物中心4楼"
  },
  {
    "name": "贵厨酸汤牛肉(鸿通城店)",
    "type": "火锅",
    "lng": 106.708545,
    "lat": 26.558059,
    "rating": 4.6,
    "cost": 65.0,
    "address": "解放路100号鸿通城购物中心4F层L4B65号"
  },
  {
    "name": "GTS coffee咖啡烘焙工坊",
    "type": "咖啡馆",
    "lng": 106.697495,
    "lat": 26.561387,
    "rating": 4.6,
    "cost": 31.0,
    "address": "体育路10号05文体园6栋2层"
  },
  {
    "name": "一统烤肉老店",
    "type": "烧烤",
    "lng": 106.714745,
    "lat": 26.57299,
    "rating": 4.5,
    "cost": 69.0,
    "address": "曹状元街2号"
  },
  {
    "name": "童年烤鸡(甲秀楼店)",
    "type": "烧烤",
    "lng": 106.715452,
    "lat": 26.575004,
    "rating": 4.5,
    "cost": 62.0,
    "address": "童年烤鸡甲秀楼店富水南路128号"
  },
  {
    "name": "五条友贵州烧烤(贵阳青云市集店)",
    "type": "烧烤",
    "lng": 106.71456,
    "lat": 26.564281,
    "rating": 4.5,
    "cost": 66.0,
    "address": "青云路83号青云市集"
  },
  {
    "name": "胖撸撸烤肉烤鸡(大十字店)",
    "type": "烧烤",
    "lng": 106.711425,
    "lat": 26.577125,
    "rating": 4.5,
    "cost": 28.0,
    "address": "铜锣湾广场(中山西路地铁站E口步行160米)"
  },
  {
    "name": "苏格里岛自助烧烤火锅(恒丰店)",
    "type": "烧烤",
    "lng": 106.708572,
    "lat": 26.578295,
    "rating": 4.5,
    "cost": 85.0,
    "address": "中山西路58号国恒百货B1层"
  },
  {
    "name": "贺记夫妻碳火烧烤(岑家花园店)",
    "type": "烧烤",
    "lng": 106.71913,
    "lat": 26.565867,
    "rating": 4.5,
    "cost": 45.0,
    "address": "新华路50号1-7层2号(新华社区)"
  },
  {
    "name": "龙姐烤肉(锦绣星城店)",
    "type": "烧烤",
    "lng": 106.699413,
    "lat": 26.5709,
    "rating": 4.5,
    "cost": 28.0,
    "address": "瑞花巷与花溪大道(北段)交叉口西50米"
  },
  {
    "name": "非岛乐园",
    "type": "酒吧",
    "lng": 106.713277,
    "lat": 26.567654,
    "rating": 4.5,
    "cost": 81.0,
    "address": "新华路街道神奇路8号经协大厦2层1号(新华办事处)"
  },
  {
    "name": "Bar Bambi帮彼酒吧",
    "type": "酒吧",
    "lng": 106.711879,
    "lat": 26.575022,
    "rating": 4.5,
    "cost": 78.0,
    "address": "中华南路59号海天商厦F1层"
  },
  {
    "name": "葫芦HULOO",
    "type": "酒吧",
    "lng": 106.704312,
    "lat": 26.572664,
    "rating": 4.5,
    "cost": 96.0,
    "address": "瑞金南路103号1单元1层"
  },
  {
    "name": "Security安全屋",
    "type": "酒吧",
    "lng": 106.715148,
    "lat": 26.575846,
    "rating": 4.5,
    "cost": 76.0,
    "address": "富水南路59号"
  },
  {
    "name": "梦野·国风酒馆(小十字店)",
    "type": "酒吧",
    "lng": 106.715097,
    "lat": 26.578313,
    "rating": 4.5,
    "cost": 46.0,
    "address": "文昌阁街道富水中路天业大厦1-1号梦野·国风酒馆"
  },
  {
    "name": "贵阳一池酒店(喷水池太平路网红街店)·餐吧&酒吧",
    "type": "酒吧",
    "lng": 106.713936,
    "lat": 26.579407,
    "rating": 4.5,
    "cost": 60.0,
    "address": "富水中路11号恒生大厦(正新街)"
  },
  {
    "name": "新大新豆米火锅1993(都司路店)",
    "type": "火锅",
    "lng": 106.708817,
    "lat": 26.573679,
    "rating": 4.5,
    "cost": 56.0,
    "address": "都司路65号中天商务港2楼(近公园南路)"
  },
  {
    "name": "布衣梅姐地摊火锅(青云路店)",
    "type": "火锅",
    "lng": 106.710643,
    "lat": 26.565634,
    "rating": 4.5,
    "cost": 30.0,
    "address": "青云路286号"
  },
  {
    "name": "文记打边炉·蒸汽冬瓜粥底火锅(甲秀楼店)",
    "type": "火锅",
    "lng": 106.71605,
    "lat": 26.568903,
    "rating": 4.5,
    "cost": 86.0,
    "address": "箭道街米市巷1号(亮欢寨对面)"
  },
  {
    "name": "腾六爷·鱼酱酸汤鱼·贵州菜(贵阳甲秀楼店)",
    "type": "火锅",
    "lng": 106.715127,
    "lat": 26.573747,
    "rating": 4.5,
    "cost": 40.0,
    "address": "富水南路富都大厦负一楼(停车场出入口旁上来)"
  },
  {
    "name": "黔小豆豆米豆豉酸汤火锅",
    "type": "火锅",
    "lng": 106.71654,
    "lat": 26.568107,
    "rating": 4.5,
    "cost": 26.0,
    "address": "兴隆西巷146号"
  },
  {
    "name": "小肥猪地摊火锅(兴隆街店)",
    "type": "火锅",
    "lng": 106.716304,
    "lat": 26.567466,
    "rating": 4.5,
    "cost": 32.0,
    "address": "兴隆西巷A栋1层1号"
  },
  {
    "name": "叁叁說mido贵州鲜切牛肉火锅",
    "type": "火锅",
    "lng": 106.715617,
    "lat": 26.574132,
    "rating": 4.5,
    "cost": 77.0,
    "address": "富水南路186号(阿雄鱼海旁)"
  },
  {
    "name": "都匀兄弟虾酸火锅(甲秀楼店)",
    "type": "火锅",
    "lng": 106.716546,
    "lat": 26.573074,
    "rating": 4.5,
    "cost": 43.0,
    "address": "中华南路街道正谊路3栋2单元2号(安顺小吃旁边)"
  },
  {
    "name": "刘孃家辣子鸡",
    "type": "火锅",
    "lng": 106.714435,
    "lat": 26.575405,
    "rating": 4.5,
    "cost": 51.0,
    "address": "醒狮路6号1层A1号"
  },
  {
    "name": "邱孃烧椒牛肉火锅(甲秀楼店)",
    "type": "火锅",
    "lng": 106.716788,
    "lat": 26.57339,
    "rating": 4.5,
    "cost": 37.0,
    "address": "中华南路街道护国路129号"
  },
  {
    "name": "良诚吉肆·屯堡滋味脆皮灌汤猪脚火锅(甲秀楼店)",
    "type": "火锅",
    "lng": 106.716742,
    "lat": 26.573667,
    "rating": 4.5,
    "cost": 60.0,
    "address": "正谊街1栋2单元1层"
  },
  {
    "name": "巷子里重庆鲜货老火锅",
    "type": "火锅",
    "lng": 106.714335,
    "lat": 26.563878,
    "rating": 4.5,
    "cost": 78.0,
    "address": "兴关路街道青云路83号针织厂"
  },
  {
    "name": "萍姐火锅·公路夜市(贵阳万象城店)",
    "type": "夜市",
    "lng": 106.703957,
    "lat": 26.560349,
    "rating": 4.5,
    "cost": 95.0,
    "address": "遵义路328号贵阳万象城L5层"
  },
  {
    "name": "柒记·广式茶餐厅(经协大厦店)",
    "type": "特色餐饮",
    "lng": 106.713261,
    "lat": 26.56758,
    "rating": 4.5,
    "cost": 59.0,
    "address": "箭道街80号经协大厦F1层"
  },
  {
    "name": "高原家咖啡(博爱路店)",
    "type": "咖啡馆",
    "lng": 106.712708,
    "lat": 26.5714,
    "rating": 4.5,
    "cost": 42.0,
    "address": "博爱路六洞街6号"
  },
  {
    "name": "山花seekseeking(青云步行街店)",
    "type": "咖啡馆",
    "lng": 106.71146,
    "lat": 26.565687,
    "rating": 4.5,
    "cost": 19.0,
    "address": "青云路步行街LJ002号(喜百年斜对面)"
  },
  {
    "name": "香堤雅休闲境(箭道街店)",
    "type": "咖啡馆",
    "lng": 106.715991,
    "lat": 26.569404,
    "rating": 4.5,
    "cost": 73.0,
    "address": []
  },
  {
    "name": "瑞幸咖啡(青云市集步行街店)",
    "type": "咖啡馆",
    "lng": 106.713173,
    "lat": 26.565408,
    "rating": 4.5,
    "cost": 10.0,
    "address": "青云路129号"
  },
  {
    "name": "灌木咖啡(瑞金南路店)",
    "type": "咖啡馆",
    "lng": 106.71552,
    "lat": 26.565998,
    "rating": 4.5,
    "cost": 41.0,
    "address": "河滨街道环城南路112号1层2"
  },
  {
    "name": "瑞幸咖啡(青云市集店)",
    "type": "咖啡馆",
    "lng": 106.714425,
    "lat": 26.564075,
    "rating": 4.5,
    "cost": 20.0,
    "address": "青云路83号青云市集D区底商"
  },
  {
    "name": "灌木咖啡(甲秀楼店)",
    "type": "咖啡馆",
    "lng": 106.718823,
    "lat": 26.572379,
    "rating": 4.5,
    "cost": 42.0,
    "address": "西湖路街道办事处A栋1层11号(西湖办事处)"
  },
  {
    "name": "宜北町(小十字店)",
    "type": "咖啡馆",
    "lng": 106.714758,
    "lat": 26.577548,
    "rating": 4.5,
    "cost": 24.0,
    "address": "中山东路180-182号一层附6号门面"
  },
  {
    "name": "灌木咖啡(小十字银座店)",
    "type": "咖啡馆",
    "lng": 106.715484,
    "lat": 26.577424,
    "rating": 4.5,
    "cost": 31.0,
    "address": "中山东路28号"
  },
  {
    "name": "豆仔手冲专门店",
    "type": "咖啡馆",
    "lng": 106.71459,
    "lat": 26.578045,
    "rating": 4.5,
    "cost": 25.0,
    "address": "小十字正山街40号"
  },
  {
    "name": "小胖烤肉(文昌阁店)",
    "type": "烧烤",
    "lng": 106.71878,
    "lat": 26.579157,
    "rating": 4.5,
    "cost": 57.0,
    "address": "文昌阁电台街70号"
  },
  {
    "name": "陌坂日式烧肉料理",
    "type": "烧烤",
    "lng": 106.716965,
    "lat": 26.580278,
    "rating": 4.5,
    "cost": 113.0,
    "address": "文明路45号"
  },
  {
    "name": "尹三顺自助烤肉",
    "type": "烧烤",
    "lng": 106.719313,
    "lat": 26.577455,
    "rating": 4.5,
    "cost": 64.0,
    "address": "文昌阁走亨特方向一百米"
  },
  {
    "name": "黔师门大排档·夜宵烧烤(省府路店)",
    "type": "烧烤",
    "lng": 106.716047,
    "lat": 26.580669,
    "rating": 4.5,
    "cost": 50.0,
    "address": "省府路石板街30号(名玺印象楼下)"
  },
  {
    "name": "MIKOMIKO日式和牛烧肉(亨特店)",
    "type": "烧烤",
    "lng": 106.718968,
    "lat": 26.577185,
    "rating": 4.5,
    "cost": 198.0,
    "address": "文昌苑31号(近文昌阁和亨特)"
  },
  {
    "name": "尹胖胖原切无限烤肉",
    "type": "烧烤",
    "lng": 106.719193,
    "lat": 26.577036,
    "rating": 4.5,
    "cost": 64.0,
    "address": "文昌南路24号"
  },
  {
    "name": "合群YES",
    "type": "烧烤",
    "lng": 106.713949,
    "lat": 26.582799,
    "rating": 4.5,
    "cost": 67.0,
    "address": "富水北路青禾丽人2层"
  },
  {
    "name": "包正中碳烤鲫鱼",
    "type": "烧烤",
    "lng": 106.715516,
    "lat": 26.586969,
    "rating": 4.5,
    "cost": 68.0,
    "address": "黔灵东路"
  },
  {
    "name": "匠牛烤房",
    "type": "烧烤",
    "lng": 106.715457,
    "lat": 26.586978,
    "rating": 4.5,
    "cost": 77.0,
    "address": "黔灵东路77号黔灵小学旁"
  },
  {
    "name": "味里精酿鸡火锅(文昌北路店)",
    "type": "火锅",
    "lng": 106.719647,
    "lat": 26.585533,
    "rating": 4.5,
    "cost": 81.0,
    "address": "文昌北路筑东巷24号"
  },
  {
    "name": "他先生豆米豆豉酸辣烫火锅",
    "type": "火锅",
    "lng": 106.717982,
    "lat": 26.585543,
    "rating": 4.5,
    "cost": 30.0,
    "address": "文昌北路与延安东路交叉口东南20米"
  },
  {
    "name": "布衣梅姐地摊火锅(文明路分店)",
    "type": "火锅",
    "lng": 106.71696,
    "lat": 26.5797,
    "rating": 4.5,
    "cost": 33.0,
    "address": "文昌阁街道文明路1号东方新苑小商品市场301号"
  },
  {
    "name": "有友大方豆干火锅",
    "type": "火锅",
    "lng": 106.716272,
    "lat": 26.581845,
    "rating": 4.5,
    "cost": 30.0,
    "address": "省府社区服务中心省府北街5号堰塘街3号院"
  },
  {
    "name": "胖墩墩地摊火锅(省府路店)",
    "type": "火锅",
    "lng": 106.716149,
    "lat": 26.580557,
    "rating": 4.5,
    "cost": 26.0,
    "address": "文昌阁街道省府路贵府1-37号"
  },
  {
    "name": "九牛知人鲜切酸汤牛肉",
    "type": "火锅",
    "lng": 106.715944,
    "lat": 26.580797,
    "rating": 4.5,
    "cost": 86.0,
    "address": "省府东街1号"
  },
  {
    "name": "川心美蛙鱼头火锅(护国路店)",
    "type": "火锅",
    "lng": 106.717506,
    "lat": 26.577738,
    "rating": 4.5,
    "cost": 58.0,
    "address": "尚武小区西南门北80米"
  },
  {
    "name": "黔牛袁记砂锅黄焖牛肉火锅(总店)",
    "type": "火锅",
    "lng": 106.717326,
    "lat": 26.58674,
    "rating": 4.5,
    "cost": 45.0,
    "address": "友谊路16号"
  },
  {
    "name": "街边地摊火锅(护国路店)",
    "type": "火锅",
    "lng": 106.717439,
    "lat": 26.576939,
    "rating": 4.5,
    "cost": 30.0,
    "address": "护国路33号(豪丽酒楼旁)"
  },
  {
    "name": "彭记鱿鱼鸡",
    "type": "火锅",
    "lng": 106.714703,
    "lat": 26.583398,
    "rating": 4.5,
    "cost": 45.0,
    "address": "富水北路引线巷2号"
  },
  {
    "name": "小肥猪地摊火锅·跻夔(护国路店)",
    "type": "火锅",
    "lng": 106.717442,
    "lat": 26.576534,
    "rating": 4.5,
    "cost": 26.0,
    "address": "中华南路街道护国路199号名士花园一期1层12号"
  },
  {
    "name": "牛滚塘凯里酸汤牛肉(友谊路店)",
    "type": "火锅",
    "lng": 106.716899,
    "lat": 26.587129,
    "rating": 4.5,
    "cost": 58.0,
    "address": "黔灵东路街道黔灵东路132号一层"
  },
  {
    "name": "新大新豆米火锅1993(文昌阁店)",
    "type": "火锅",
    "lng": 106.714915,
    "lat": 26.579318,
    "rating": 4.5,
    "cost": 56.0,
    "address": "都市新大新豆米火锅中山东路店"
  },
  {
    "name": "拐角楼食府",
    "type": "特色餐饮",
    "lng": 106.720256,
    "lat": 26.580451,
    "rating": 4.5,
    "cost": 48.0,
    "address": "文昌阁街道东新路70号(阳明祠地铁站B口步行350米)"
  },
  {
    "name": "好嘢·香樟树贵州菜(师大店)(装修中)",
    "type": "特色餐饮",
    "lng": 106.720252,
    "lat": 26.58639,
    "rating": 4.5,
    "cost": 61.0,
    "address": "黔灵东路街道宝山北路180号师大大门右侧二层"
  },
  {
    "name": "灌木咖啡(亨特店)",
    "type": "咖啡馆",
    "lng": 106.719424,
    "lat": 26.576995,
    "rating": 4.5,
    "cost": 36.0,
    "address": "西湖社区服务中心文昌南路128号锦江之星楼下"
  },
  {
    "name": "Berkeley Coffee(省府路店)",
    "type": "咖啡馆",
    "lng": 106.71561,
    "lat": 26.580761,
    "rating": 4.5,
    "cost": 39.0,
    "address": "省府路18号2单元2号"
  },
  {
    "name": "FOR Coffee(喷水池店)",
    "type": "咖啡馆",
    "lng": 106.714239,
    "lat": 26.58457,
    "rating": 4.5,
    "cost": 34.0,
    "address": "喷水池延安东路桔子水晶酒店旁林哥炸鸡楼上"
  },
  {
    "name": "慕昔提咖啡(太平路店)",
    "type": "咖啡馆",
    "lng": 106.71235,
    "lat": 26.581701,
    "rating": 4.5,
    "cost": 31.0,
    "address": "中华中路1号商业楼2层(喷水池地铁站H口步行270米)"
  },
  {
    "name": "老虎不在家烤鲫鱼烤鸡(总店)",
    "type": "烧烤",
    "lng": 106.725191,
    "lat": 26.558792,
    "rating": 4.5,
    "cost": 91.0,
    "address": "嘉润路14号"
  },
  {
    "name": "壶泊HUBER ShiSha Lounge",
    "type": "酒吧",
    "lng": 106.717039,
    "lat": 26.561026,
    "rating": 4.5,
    "cost": 75.0,
    "address": "兴关路街道解放路70号新星变压厂内,进入后路口左转"
  },
  {
    "name": "舒服恼火SuFuLaoHo",
    "type": "酒吧",
    "lng": 106.725504,
    "lat": 26.566707,
    "rating": 4.5,
    "cost": 60.0,
    "address": "油榨街道南浦路20门面"
  },
  {
    "name": "文记打边炉·蒸汽冬瓜粥底火锅(南浦路店)",
    "type": "火锅",
    "lng": 106.725735,
    "lat": 26.566701,
    "rating": 4.5,
    "cost": 81.0,
    "address": "南浦路16号"
  },
  {
    "name": "侗家食府侗家贵客店",
    "type": "特色餐饮",
    "lng": 106.721411,
    "lat": 26.563166,
    "rating": 4.5,
    "cost": 130.0,
    "address": "新华路街道市南路217号宏泰世家2层1号、3层1号(新华办事处)"
  },
  {
    "name": "朱记竹签烤肉店",
    "type": "烧烤",
    "lng": 106.706433,
    "lat": 26.585228,
    "rating": 4.5,
    "cost": 46.0,
    "address": "城基路106号(紫林庵地铁站C口步行370米)"
  },
  {
    "name": "黔烧烧融合烤肉(黔灵西路店)",
    "type": "烧烤",
    "lng": 106.706426,
    "lat": 26.586239,
    "rating": 4.5,
    "cost": 55.0,
    "address": "黔灵西路210号"
  },
  {
    "name": "和古烧肉(城市之光店)",
    "type": "烧烤",
    "lng": 106.705637,
    "lat": 26.589083,
    "rating": 4.5,
    "cost": 577.0,
    "address": "环城北路106号"
  },
  {
    "name": "Black Venus(文创店)",
    "type": "酒吧",
    "lng": 106.69901,
    "lat": 26.57544,
    "rating": 4.5,
    "cost": 64.0,
    "address": "花香村如意巷10号文创园4-1F发酵间"
  },
  {
    "name": "空瓶子livehouse",
    "type": "酒吧",
    "lng": 106.699025,
    "lat": 26.574975,
    "rating": 4.5,
    "cost": 71.0,
    "address": "浣纱路辅路与市西路商业街交叉口东南100米"
  },
  {
    "name": "符号Rhythmic Music House",
    "type": "酒吧",
    "lng": 106.708733,
    "lat": 26.586397,
    "rating": 4.5,
    "cost": 118.0,
    "address": "黔灵西路78号(喷水池地铁站A口步行120米)"
  },
  {
    "name": "PAYA PARTY LIVE",
    "type": "酒吧",
    "lng": 106.709937,
    "lat": 26.581239,
    "rating": 4.5,
    "cost": 75.0,
    "address": "太平路船屋3-L2-1(临人民大道一侧)"
  },
  {
    "name": "Uptown太平路",
    "type": "酒吧",
    "lng": 106.710145,
    "lat": 26.581505,
    "rating": 4.5,
    "cost": 84.0,
    "address": "太平路船街城市更新项目3-L1-3"
  },
  {
    "name": "黑森林酒吧(贵阳太平路店)",
    "type": "酒吧",
    "lng": 106.710312,
    "lat": 26.581867,
    "rating": 4.5,
    "cost": 64.0,
    "address": "太平路0号小吃楼1幢2-4层"
  },
  {
    "name": "麻乌酒馆(喷水池旗舰店)",
    "type": "酒吧",
    "lng": 106.710765,
    "lat": 26.583543,
    "rating": 4.5,
    "cost": 63.0,
    "address": "喷水池延安中路劳动保障厅信合大厦3楼(地铁G出口旁边)"
  },
  {
    "name": "BilleJean(皇后区)",
    "type": "酒吧",
    "lng": 106.712194,
    "lat": 26.581586,
    "rating": 4.5,
    "cost": 60.0,
    "address": "太平路市一幼左手旁(喷水池地铁站H口步行300米)"
  },
  {
    "name": "布衣梅姐地摊火锅(黄金路店)",
    "type": "火锅",
    "lng": 106.695482,
    "lat": 26.583676,
    "rating": 4.5,
    "cost": 34.0,
    "address": "头桥街道黄金路38号(延安西路地铁站E口步行340米)"
  },
  {
    "name": "佈食鱼水湾参鱼火锅",
    "type": "火锅",
    "lng": 106.699447,
    "lat": 26.585424,
    "rating": 4.5,
    "cost": 40.0,
    "address": "威清路119-18号"
  },
  {
    "name": "街边地摊火锅(威清路店)",
    "type": "火锅",
    "lng": 106.700688,
    "lat": 26.585726,
    "rating": 4.5,
    "cost": 29.0,
    "address": "威清路83-9号"
  },
  {
    "name": "牛滋味老凯里酸汤牛肉(黔灵山店)",
    "type": "火锅",
    "lng": 106.699345,
    "lat": 26.58782,
    "rating": 4.5,
    "cost": 50.0,
    "address": "北京路万科5号公园3层13号"
  },
  {
    "name": "忠祥饮食店豆米火锅",
    "type": "火锅",
    "lng": 106.692625,
    "lat": 26.586874,
    "rating": 4.5,
    "cost": 50.0,
    "address": "双峰路27号附1号"
  },
  {
    "name": "山野客·新派贵州小炒",
    "type": "火锅",
    "lng": 106.700194,
    "lat": 26.588969,
    "rating": 4.5,
    "cost": 48.0,
    "address": "北京路242号"
  },
  {
    "name": "菌伞伞野生菌火锅(大西门店)",
    "type": "火锅",
    "lng": 106.705173,
    "lat": 26.578333,
    "rating": 4.5,
    "cost": 56.0,
    "address": "瑞金商务大厦东门南60米"
  },
  {
    "name": "夫妻豆豉油渣火锅",
    "type": "火锅",
    "lng": 106.705608,
    "lat": 26.586126,
    "rating": 4.5,
    "cost": 49.0,
    "address": "延中社区服务中心黔灵西路327号六盘水饭店对面"
  },
  {
    "name": "绿茶餐厅(贵阳汇金星力城)",
    "type": "特色餐饮",
    "lng": 106.70255,
    "lat": 26.581402,
    "rating": 4.5,
    "cost": 52.0,
    "address": "延安西路66号汇金星力城6楼"
  },
  {
    "name": "6斤狗肉店",
    "type": "特色餐饮",
    "lng": 106.70229,
    "lat": 26.586072,
    "rating": 4.5,
    "cost": 84.0,
    "address": "威清路45号"
  },
  {
    "name": "慕昔提咖啡(金宇紫林广场店)",
    "type": "咖啡馆",
    "lng": 106.703452,
    "lat": 26.581677,
    "rating": 4.5,
    "cost": 28.0,
    "address": "建设大厦北门旁(紫林庵地铁站F口旁)"
  },
  {
    "name": "灌木咖啡(喷水池店)",
    "type": "咖啡馆",
    "lng": 106.712482,
    "lat": 26.585438,
    "rating": 4.5,
    "cost": 46.0,
    "address": "中华北路20号2层(喷水池地铁站J口步行240米)"
  },
  {
    "name": "合平酿造·精酿小炉子烤串(花果园店)",
    "type": "烧烤",
    "lng": 106.687428,
    "lat": 26.56416,
    "rating": 4.5,
    "cost": 68.0,
    "address": "花果园大街228号(花果园地铁站出入口步行350米)"
  },
  {
    "name": "尹珍珠·韩式无限烤肉(花果园店)",
    "type": "烧烤",
    "lng": 106.686143,
    "lat": 26.562697,
    "rating": 4.5,
    "cost": 71.0,
    "address": "花果园大街1号花果园国际中心F1层"
  },
  {
    "name": "解药Antidote(零五文体园店)",
    "type": "酒吧",
    "lng": 106.697461,
    "lat": 26.561193,
    "rating": 4.5,
    "cost": 122.0,
    "address": "遵义路街道体育路10号6幢2号(遵义办事处)"
  },
  {
    "name": "阿芒的里博热索(零五文体园店)",
    "type": "酒吧",
    "lng": 106.697335,
    "lat": 26.561341,
    "rating": 4.5,
    "cost": 68.0,
    "address": "体育路十号五栋二层二号"
  },
  {
    "name": "夕西南山民谣酒馆(贵阳店)",
    "type": "酒吧",
    "lng": 106.687481,
    "lat": 26.564347,
    "rating": 4.5,
    "cost": 60.0,
    "address": "花果园街道花果园花果园项目商业1号自编号2-82-9号花果园办事处"
  },
  {
    "name": "DC-CLUB贵阳",
    "type": "酒吧",
    "lng": 106.687225,
    "lat": 26.564075,
    "rating": 4.5,
    "cost": 60.0,
    "address": "海豚广场尾L1层03号"
  },
  {
    "name": "黔城摇超级酒馆",
    "type": "酒吧",
    "lng": 106.687343,
    "lat": 26.564978,
    "rating": 4.5,
    "cost": 101.0,
    "address": "花果园大街76号久遇pak二楼黔城摇超级酒馆"
  },
  {
    "name": "春丽和金刚show(贵阳花果园购物中心店)",
    "type": "酒吧",
    "lng": 106.690224,
    "lat": 26.568416,
    "rating": 4.5,
    "cost": 41.0,
    "address": "中山南路94号(松花路地铁站B口步行170米)"
  },
  {
    "name": "DC-CLUB贵阳",
    "type": "酒吧",
    "lng": 106.684682,
    "lat": 26.563383,
    "rating": 4.5,
    "cost": 60.0,
    "address": "花果园D区海豚广场海豚尾L1层-03号"
  },
  {
    "name": "DREAM+CLUB(D+酒吧)",
    "type": "酒吧",
    "lng": 106.690754,
    "lat": 26.569534,
    "rating": 4.5,
    "cost": 60.0,
    "address": "花果园中央商务区2号楼负一楼25号"
  },
  {
    "name": "梦食礼芗·土灶烧菜",
    "type": "火锅",
    "lng": 106.697879,
    "lat": 26.561168,
    "rating": 4.5,
    "cost": 43.0,
    "address": "体育路融汇零五文体园6号楼一层"
  },
  {
    "name": "安云筒梓骨代记正宗清水烫(总店)",
    "type": "火锅",
    "lng": 106.694413,
    "lat": 26.555314,
    "rating": 4.5,
    "cost": 35.0,
    "address": "解放西路225号"
  },
  {
    "name": "芸山季·云南山珍菌火锅(贵阳万象城店)",
    "type": "火锅",
    "lng": 106.704275,
    "lat": 26.560825,
    "rating": 4.5,
    "cost": 86.0,
    "address": "遵义路328号贵阳万象城L5层"
  },
  {
    "name": "肖眼镜羊肉馆(会计大厦店)",
    "type": "火锅",
    "lng": 106.692539,
    "lat": 26.562681,
    "rating": 4.5,
    "cost": 29.0,
    "address": "花溪大道北段198号会计大厦F1层"
  },
  {
    "name": "土风豆米火锅(鸿通城店)",
    "type": "火锅",
    "lng": 106.707651,
    "lat": 26.557207,
    "rating": 4.5,
    "cost": 56.0,
    "address": "解放路100号鸿通城购物中心3F层"
  },
  {
    "name": "阿熙泰冰煮羊0℃火锅(贵惠路店)",
    "type": "火锅",
    "lng": 106.699047,
    "lat": 26.566953,
    "rating": 4.5,
    "cost": 92.0,
    "address": "河滨社区社区服务中心贵惠路173号"
  },
  {
    "name": "公园路夜市",
    "type": "夜市",
    "lng": 106.694103,
    "lat": 26.568934,
    "rating": 4.5,
    "cost": 19.0,
    "address": "花果园b南区1-4层119号"
  },
  {
    "name": "花果园夜市",
    "type": "夜市",
    "lng": 106.689036,
    "lat": 26.56728,
    "rating": 4.5,
    "cost": 60.0,
    "address": "彭家湾路与花果园大街交叉口西北100米"
  },
  {
    "name": "绿茶餐厅(贵阳万象城店)",
    "type": "特色餐饮",
    "lng": 106.703328,
    "lat": 26.560565,
    "rating": 4.5,
    "cost": 64.0,
    "address": "遵义路328号万象城L424铺"
  },
  {
    "name": "31引力GRAVITY",
    "type": "咖啡馆",
    "lng": 106.69746,
    "lat": 26.561293,
    "rating": 4.5,
    "cost": 39.0,
    "address": "体育路10号6栋2层"
  },
  {
    "name": "灌木咖啡(万象城店)",
    "type": "咖啡馆",
    "lng": 106.704175,
    "lat": 26.560275,
    "rating": 4.5,
    "cost": 36.0,
    "address": "遵义路328号贵阳万象城L277"
  },
  {
    "name": "尾巴卷卷·爬宠咖啡(花果园购物中心店)",
    "type": "咖啡馆",
    "lng": 106.690169,
    "lat": 26.567512,
    "rating": 4.5,
    "cost": 44.0,
    "address": "花果园大街1号花果园购物中心2F层"
  },
  {
    "name": "星巴克(贵阳海豚广场店)",
    "type": "咖啡馆",
    "lng": 106.685456,
    "lat": 26.563297,
    "rating": 4.5,
    "cost": 29.0,
    "address": "海豚广场楼下(花果园地铁站D口步行180米)"
  },
  {
    "name": "瑞幸咖啡(花果园购物中心店)",
    "type": "咖啡馆",
    "lng": 106.689877,
    "lat": 26.568394,
    "rating": 4.5,
    "cost": 12.0,
    "address": "花果园大街1号花果园购物中心一期美食广场一层2号"
  },
  {
    "name": "星巴克臻选(贵阳花果园1店)",
    "type": "咖啡馆",
    "lng": 106.688697,
    "lat": 26.56803,
    "rating": 4.5,
    "cost": 32.0,
    "address": "花果园街1号G区第2层玻璃房"
  },
  {
    "name": "醉会烤(神奇路社区店)",
    "type": "烧烤",
    "lng": 106.714275,
    "lat": 26.565719,
    "rating": 4.4,
    "cost": 63.0,
    "address": "兴关路5-3号"
  },
  {
    "name": "南疆火焰山鲜羊馆",
    "type": "烧烤",
    "lng": 106.714365,
    "lat": 26.56495,
    "rating": 4.4,
    "cost": 58.0,
    "address": "青云路85号"
  },
  {
    "name": "在恩家·韩式无限烤肉(中山西路店)",
    "type": "烧烤",
    "lng": 106.709195,
    "lat": 26.577199,
    "rating": 4.4,
    "cost": 60.0,
    "address": "宏源大厦1层(中山西路地铁站B口旁)"
  },
  {
    "name": "胡姥陆铁签烤牛肉(青云路店)",
    "type": "烧烤",
    "lng": 106.715794,
    "lat": 26.564818,
    "rating": 4.4,
    "cost": 73.0,
    "address": "青云路123号青云市集内甲栋一层10号"
  },
  {
    "name": "粟多能花园烧烤(甲秀楼店)",
    "type": "烧烤",
    "lng": 106.717614,
    "lat": 26.57393,
    "rating": 4.4,
    "cost": 60.0,
    "address": "护国路99号护国路商住楼"
  },
  {
    "name": "黔民烤市",
    "type": "烧烤",
    "lng": 106.717856,
    "lat": 26.573695,
    "rating": 4.4,
    "cost": 53.0,
    "address": "护国路132号"
  },
  {
    "name": "丫头烧烤",
    "type": "烧烤",
    "lng": 106.710123,
    "lat": 26.561625,
    "rating": 4.4,
    "cost": 46.0,
    "address": "兴关路街道遵义路95号碧桂园星作6号楼负一层5号"
  },
  {
    "name": "壹北起碳事·老贵阳黔味融合烧烤",
    "type": "烧烤",
    "lng": 106.717186,
    "lat": 26.576262,
    "rating": 4.4,
    "cost": 67.0,
    "address": "上护国路21中旁边巷子"
  },
  {
    "name": "馥家烧肉屋",
    "type": "烧烤",
    "lng": 106.71747,
    "lat": 26.576495,
    "rating": 4.4,
    "cost": 115.0,
    "address": "护国路33、37号院"
  },
  {
    "name": "诗纯自助烤肉",
    "type": "烧烤",
    "lng": 106.714182,
    "lat": 26.578646,
    "rating": 4.4,
    "cost": 47.0,
    "address": "正山街72号小十字富水花园B座1-6号"
  },
  {
    "name": "小核桃烤肉店",
    "type": "烧烤",
    "lng": 106.710593,
    "lat": 26.579589,
    "rating": 4.4,
    "cost": 82.0,
    "address": "省府西路44号"
  },
  {
    "name": "夏老幺铁钎烤牛肉",
    "type": "烧烤",
    "lng": 106.710352,
    "lat": 26.579657,
    "rating": 4.4,
    "cost": 48.0,
    "address": "毓秀街道公园路8-26号都市民园一层附7号"
  },
  {
    "name": "马颖穆斯林烧烤(贵阳总店)",
    "type": "烧烤",
    "lng": 106.699494,
    "lat": 26.566882,
    "rating": 4.4,
    "cost": 60.0,
    "address": "贵惠路160号"
  },
  {
    "name": "西塔老太太泥炉烤肉(贵阳万象城店)",
    "type": "烧烤",
    "lng": 106.704453,
    "lat": 26.560899,
    "rating": 4.4,
    "cost": 95.0,
    "address": "体育路1号贵阳万象城L415号"
  },
  {
    "name": "天赋牛烤肉(亨特CITY MALL店)",
    "type": "烧烤",
    "lng": 106.71921,
    "lat": 26.576331,
    "rating": 4.4,
    "cost": 76.0,
    "address": "文昌南路33号亨特CITY MALLF3层"
  },
  {
    "name": "昙花一现(汇灵巷17号院落店)",
    "type": "酒吧",
    "lng": 106.712645,
    "lat": 26.571588,
    "rating": 4.4,
    "cost": 74.0,
    "address": "博爱路汇灵巷20号"
  },
  {
    "name": "A Live Lounge Bar(夏威夷风情露天花园餐酒吧)",
    "type": "酒吧",
    "lng": 106.713213,
    "lat": 26.572536,
    "rating": 4.4,
    "cost": 59.0,
    "address": "中华南路91号万国大厦1幢5层(万国艺术酒店五楼)"
  },
  {
    "name": "VV ROOM",
    "type": "酒吧",
    "lng": 106.714952,
    "lat": 26.571189,
    "rating": 4.4,
    "cost": 99.0,
    "address": "阳明路B独栋1楼"
  },
  {
    "name": "绅阁会箭道街店",
    "type": "酒吧",
    "lng": 106.71512,
    "lat": 26.569064,
    "rating": 4.4,
    "cost": 115.0,
    "address": "箭道街9号MinnHouse顶层"
  },
  {
    "name": "俞岛· YU.ISLAND",
    "type": "酒吧",
    "lng": 106.712478,
    "lat": 26.575723,
    "rating": 4.4,
    "cost": 60.0,
    "address": "中华南路街道中华南路20号1层6号"
  },
  {
    "name": "金士曼Gin'smanBar",
    "type": "酒吧",
    "lng": 106.716199,
    "lat": 26.567032,
    "rating": 4.4,
    "cost": 54.0,
    "address": "电力巷28号院西北侧"
  },
  {
    "name": "xeer精酿餐吧(电力巷店)",
    "type": "酒吧",
    "lng": 106.716225,
    "lat": 26.566775,
    "rating": 4.4,
    "cost": 91.0,
    "address": "电力巷28号院入口处"
  },
  {
    "name": "1900bar",
    "type": "酒吧",
    "lng": 106.714519,
    "lat": 26.575361,
    "rating": 4.4,
    "cost": 46.0,
    "address": "醒狮路29号"
  },
  {
    "name": "ONLY BLUE R&B LIVE",
    "type": "酒吧",
    "lng": 106.71482,
    "lat": 26.564723,
    "rating": 4.4,
    "cost": 63.0,
    "address": "兴关路青云市集A栋青云不夜城内3层06号"
  },
  {
    "name": "麻乌酒馆(青云市集店)",
    "type": "酒吧",
    "lng": 106.714807,
    "lat": 26.564391,
    "rating": 4.4,
    "cost": 63.0,
    "address": "青云市集A座5楼"
  },
  {
    "name": "姬野酒馆",
    "type": "酒吧",
    "lng": 106.71698,
    "lat": 26.566616,
    "rating": 4.4,
    "cost": 58.0,
    "address": "电力巷26号院北门对面"
  },
  {
    "name": "停云(Tender•Bar)",
    "type": "酒吧",
    "lng": 106.717176,
    "lat": 26.566312,
    "rating": 4.4,
    "cost": 63.0,
    "address": "青云路1号新华电力巷社区"
  },
  {
    "name": "七号音乐酒吧",
    "type": "酒吧",
    "lng": 106.712911,
    "lat": 26.562824,
    "rating": 4.4,
    "cost": 40.0,
    "address": "兴关路19号A幢1号"
  },
  {
    "name": "Bambi genesis帮彼",
    "type": "酒吧",
    "lng": 106.715492,
    "lat": 26.575959,
    "rating": 4.4,
    "cost": 82.0,
    "address": "富水南路东二区9栋1层12号"
  },
  {
    "name": "圆弧精酿酒馆(护国路店)",
    "type": "酒吧",
    "lng": 106.717601,
    "lat": 26.573715,
    "rating": 4.4,
    "cost": 62.0,
    "address": "护国路护国路129号2"
  },
  {
    "name": "挪威森林3号店",
    "type": "酒吧",
    "lng": 106.714008,
    "lat": 26.577112,
    "rating": 4.4,
    "cost": 39.0,
    "address": "米客酒店2层(中山西路地铁站E口步行450米)"
  },
  {
    "name": "Bar Bambi帮彼酒吧(青云路店)",
    "type": "酒吧",
    "lng": 106.716756,
    "lat": 26.56438,
    "rating": 4.4,
    "cost": 51.0,
    "address": "青云路42号"
  },
  {
    "name": "DEJAVU迪迦吾酒吧(护国路店)",
    "type": "酒吧",
    "lng": 106.717631,
    "lat": 26.574835,
    "rating": 4.4,
    "cost": 62.0,
    "address": "中华南路街道护国路117号林城大厦1幢负一层"
  },
  {
    "name": "狗啤汽精酿",
    "type": "酒吧",
    "lng": 106.716124,
    "lat": 26.576634,
    "rating": 4.4,
    "cost": 58.0,
    "address": "白沙东巷4号附1号"
  },
  {
    "name": "LuLu.Bar(甲秀楼店)",
    "type": "酒吧",
    "lng": 106.719479,
    "lat": 26.572537,
    "rating": 4.4,
    "cost": 54.0,
    "address": "西湖路18-2号"
  },
  {
    "name": "摆渡民谣酒馆(小十字店)",
    "type": "酒吧",
    "lng": 106.715818,
    "lat": 26.577415,
    "rating": 4.4,
    "cost": 73.0,
    "address": "中华南路街道中山东路40-42号银座商务大夏1层1"
  },
  {
    "name": "兮禾酒馆(青云路店)(暂停营业)",
    "type": "酒吧",
    "lng": 106.714775,
    "lat": 26.564175,
    "rating": 4.4,
    "cost": 89.0,
    "address": "新华路街道青云路83号"
  },
  {
    "name": "半醒精酿酒坊(大十字店)",
    "type": "酒吧",
    "lng": 106.712685,
    "lat": 26.579579,
    "rating": 4.4,
    "cost": 60.0,
    "address": "中华中路64号"
  },
  {
    "name": "NoNo莱福舞室酒吧",
    "type": "酒吧",
    "lng": 106.698937,
    "lat": 26.573956,
    "rating": 4.4,
    "cost": 65.0,
    "address": "浣纱路辅路与花香巷交叉口东100米"
  },
  {
    "name": "墨ink Party K",
    "type": "酒吧",
    "lng": 106.697812,
    "lat": 26.569609,
    "rating": 4.4,
    "cost": 60.0,
    "address": "解放路辅路与花溪大道北段交叉口西40米"
  },
  {
    "name": "周家猪脚火锅",
    "type": "火锅",
    "lng": 106.711625,
    "lat": 26.572393,
    "rating": 4.4,
    "cost": 77.0,
    "address": "博爱路38号"
  },
  {
    "name": "七哥八弟小院坝牛肉火锅",
    "type": "火锅",
    "lng": 106.708327,
    "lat": 26.574195,
    "rating": 4.4,
    "cost": 50.0,
    "address": "市府社区凌云街52号"
  },
  {
    "name": "巷子里·茶火锅",
    "type": "火锅",
    "lng": 106.714993,
    "lat": 26.571655,
    "rating": 4.4,
    "cost": 52.0,
    "address": "钻石广场B栋6层"
  },
  {
    "name": "鱼水湾靓汤鱼馆",
    "type": "火锅",
    "lng": 106.714336,
    "lat": 26.565887,
    "rating": 4.4,
    "cost": 71.0,
    "address": "兴关路4号"
  },
  {
    "name": "鲜烫鸡片火锅",
    "type": "火锅",
    "lng": 106.715233,
    "lat": 26.56663,
    "rating": 4.4,
    "cost": 30.0,
    "address": "新华路街道神奇路32号一层自编3号"
  },
  {
    "name": "布衣梅姐地摊火锅(兴隆街分店)",
    "type": "火锅",
    "lng": 106.715339,
    "lat": 26.566607,
    "rating": 4.4,
    "cost": 32.0,
    "address": "兴隆街43号"
  },
  {
    "name": "马旺玉·鲜鱼杂火锅(兴隆街店)",
    "type": "火锅",
    "lng": 106.716405,
    "lat": 26.567823,
    "rating": 4.4,
    "cost": 38.0,
    "address": "新华路兴隆西巷184号1层"
  },
  {
    "name": "金桥小院老火锅",
    "type": "火锅",
    "lng": 106.707297,
    "lat": 26.57577,
    "rating": 4.4,
    "cost": 72.0,
    "address": "都司高架桥路86号"
  },
  {
    "name": "咔咔锅锅",
    "type": "火锅",
    "lng": 106.716079,
    "lat": 26.566883,
    "rating": 4.4,
    "cost": 75.0,
    "address": "电力巷28号电力巷28号院"
  },
  {
    "name": "黔小鱼糟辣鱼火锅",
    "type": "火锅",
    "lng": 106.71608,
    "lat": 26.573177,
    "rating": 4.4,
    "cost": 42.0,
    "address": "富水南路南横街口曹状元街对面"
  },
  {
    "name": "忆苗香酸汤火锅",
    "type": "火锅",
    "lng": 106.716689,
    "lat": 26.567676,
    "rating": 4.4,
    "cost": 46.0,
    "address": "兴隆街新华巷26号"
  },
  {
    "name": "小瑞厨房·番茄鸡火锅(甲秀楼店)",
    "type": "火锅",
    "lng": 106.71542,
    "lat": 26.575208,
    "rating": 4.4,
    "cost": 49.0,
    "address": "富水南路126号"
  },
  {
    "name": "巷黔云餐厅",
    "type": "特色餐饮",
    "lng": 106.712275,
    "lat": 26.572075,
    "rating": 4.4,
    "cost": 85.0,
    "address": "市府社区服务中心博爱路88号汇灵巷17号院落"
  },
  {
    "name": "马记穆斯林伊筑坊清真餐厅",
    "type": "特色餐饮",
    "lng": 106.707309,
    "lat": 26.572929,
    "rating": 4.4,
    "cost": 39.0,
    "address": "文化路都市花园一栋一层5号门面"
  },
  {
    "name": "蒲公英餐厅",
    "type": "特色餐饮",
    "lng": 106.713328,
    "lat": 26.567347,
    "rating": 4.4,
    "cost": 88.0,
    "address": "箭道街72号蒲公英餐厅3楼4楼"
  },
  {
    "name": "贵州老擂钵餐饮管理有限公司",
    "type": "特色餐饮",
    "lng": 106.716129,
    "lat": 26.566765,
    "rating": 4.4,
    "cost": 87.0,
    "address": "电力巷28号院"
  },
  {
    "name": "聚千翻烙锅二店",
    "type": "特色餐饮",
    "lng": 106.71636,
    "lat": 26.573086,
    "rating": 4.4,
    "cost": 47.0,
    "address": "南横街"
  },
  {
    "name": "慕昔提咖啡(都司路店)",
    "type": "咖啡馆",
    "lng": 106.708545,
    "lat": 26.57379,
    "rating": 4.4,
    "cost": 36.0,
    "address": "中华南路街道都司路中天商务港1层1号"
  },
  {
    "name": "EspressoVoyage屋吉咖啡(电力巷28号院店)",
    "type": "咖啡馆",
    "lng": 106.716118,
    "lat": 26.566914,
    "rating": 4.4,
    "cost": 39.0,
    "address": "电力巷28号院(停车场左手边)"
  },
  {
    "name": "玉米胶片咖啡屋",
    "type": "咖啡馆",
    "lng": 106.715293,
    "lat": 26.574654,
    "rating": 4.4,
    "cost": 30.0,
    "address": "富水南路121号1层"
  },
  {
    "name": "星巴克(青云市集店)",
    "type": "咖啡馆",
    "lng": 106.714625,
    "lat": 26.564725,
    "rating": 4.4,
    "cost": 43.0,
    "address": "青云市集"
  },
  {
    "name": "Farfalla Coffee",
    "type": "咖啡馆",
    "lng": 106.707772,
    "lat": 26.576715,
    "rating": 4.4,
    "cost": 34.0,
    "address": "丁家糯米饭旁边院内市府路与中山西路交叉口西南80米"
  },
  {
    "name": "雪咖啡Snowlab(电力巷店)",
    "type": "咖啡馆",
    "lng": 106.716975,
    "lat": 26.566268,
    "rating": 4.4,
    "cost": 32.0,
    "address": "电力巷25号电力巷25号院"
  },
  {
    "name": "infinite cafe",
    "type": "咖啡馆",
    "lng": 106.717708,
    "lat": 26.573056,
    "rating": 4.4,
    "cost": 31.0,
    "address": "护国路152号1层1号(面对醉苗侗右侧上小楼梯巷子内)"
  },
  {
    "name": "CaptainGeorge乔治队长(富水南路店)",
    "type": "咖啡馆",
    "lng": 106.715075,
    "lat": 26.576106,
    "rating": 4.4,
    "cost": 43.0,
    "address": "富水南路45号"
  },
  {
    "name": "0851咖啡",
    "type": "咖啡馆",
    "lng": 106.718628,
    "lat": 26.569113,
    "rating": 4.4,
    "cost": 33.0,
    "address": "新华路街道新华路242号"
  },
  {
    "name": "low light(咖啡馆)",
    "type": "咖啡馆",
    "lng": 106.718455,
    "lat": 26.573054,
    "rating": 4.4,
    "cost": 24.0,
    "address": "文昌南路116号"
  },
  {
    "name": "ing coffee 正在咖啡",
    "type": "咖啡馆",
    "lng": 106.718675,
    "lat": 26.572713,
    "rating": 4.4,
    "cost": 36.0,
    "address": "西湖路7号4栋"
  },
  {
    "name": "知世咖啡馆",
    "type": "咖啡馆",
    "lng": 106.718688,
    "lat": 26.572739,
    "rating": 4.4,
    "cost": 45.0,
    "address": "西湖路9号4单元负1层18号"
  },
  {
    "name": "灌木咖啡(文昌南路店)",
    "type": "咖啡馆",
    "lng": 106.718772,
    "lat": 26.574154,
    "rating": 4.4,
    "cost": 29.0,
    "address": "中华南路街道文昌南路150号"
  },
  {
    "name": "王记夫妻烧烤",
    "type": "烧烤",
    "lng": 106.71993,
    "lat": 26.583119,
    "rating": 4.4,
    "cost": 37.0,
    "address": "鸿雁巷与文昌北路交叉口东80米"
  },
  {
    "name": "兰兰烤肉",
    "type": "烧烤",
    "lng": 106.72304,
    "lat": 26.578116,
    "rating": 4.4,
    "cost": 47.0,
    "address": "中山东路8号(省人民医院地铁站C口步行210米)"
  },
  {
    "name": "大象瓦罐豆花烤鱼",
    "type": "烧烤",
    "lng": 106.724088,
    "lat": 26.587382,
    "rating": 4.4,
    "cost": 35.0,
    "address": "旭东路114号(阳明祠地铁站C口步行390米)"
  },
  {
    "name": "唐莽莽烙锅竹签烤肉",
    "type": "烧烤",
    "lng": 106.715592,
    "lat": 26.581851,
    "rating": 4.4,
    "cost": 51.0,
    "address": "省府北街9号"
  },
  {
    "name": "淼淼老贵阳烤肉",
    "type": "烧烤",
    "lng": 106.714819,
    "lat": 26.579891,
    "rating": 4.4,
    "cost": 43.0,
    "address": "富水中路104号一单元一层8号"
  },
  {
    "name": "66烧烤",
    "type": "烧烤",
    "lng": 106.725175,
    "lat": 26.575552,
    "rating": 4.4,
    "cost": 38.0,
    "address": "都司高架桥路与宝山南路辅路交叉口西南40米"
  },
  {
    "name": "洪桥烤鸡(贵阳首店)",
    "type": "烧烤",
    "lng": 106.715815,
    "lat": 26.587326,
    "rating": 4.4,
    "cost": 52.0,
    "address": "黔灵东路87号"
  },
  {
    "name": "菌极鲜野生菌火锅店",
    "type": "火锅",
    "lng": 106.722342,
    "lat": 26.581234,
    "rating": 4.4,
    "cost": 78.0,
    "address": "东新路3号1栋2楼附4号"
  },
  {
    "name": "鼎·蘑菇野生菌火锅",
    "type": "火锅",
    "lng": 106.719334,
    "lat": 26.582577,
    "rating": 4.4,
    "cost": 57.0,
    "address": "文昌北路传书巷8号"
  },
  {
    "name": "胖大姐猪脚火锅店",
    "type": "火锅",
    "lng": 106.719185,
    "lat": 26.581659,
    "rating": 4.4,
    "cost": 46.0,
    "address": "环城东路495号1层2号附14号"
  },
  {
    "name": "布衣梅姐地摊火锅(文昌阁店)",
    "type": "火锅",
    "lng": 106.719827,
    "lat": 26.578922,
    "rating": 4.4,
    "cost": 35.0,
    "address": "文昌阁街道文昌北路宏泰文锦阁一层B区2-3号门面"
  },
  {
    "name": "勤火锅",
    "type": "火锅",
    "lng": 106.718327,
    "lat": 26.58369,
    "rating": 4.4,
    "cost": 67.0,
    "address": "黔灵东路街道三民东路31号大院1层"
  },
  {
    "name": "猪蹄超人蹄花火锅(文昌北路总店)",
    "type": "火锅",
    "lng": 106.71819,
    "lat": 26.585096,
    "rating": 4.4,
    "cost": 62.0,
    "address": "文昌北路154号"
  },
  {
    "name": "和古洋房火锅·纯血和牛专门店",
    "type": "火锅",
    "lng": 106.718109,
    "lat": 26.578745,
    "rating": 4.4,
    "cost": 1259.0,
    "address": "中山东路80号1-2层"
  },
  {
    "name": "黔酵小馆",
    "type": "火锅",
    "lng": 106.720326,
    "lat": 26.577319,
    "rating": 4.4,
    "cost": 81.0,
    "address": "中华南路街道官井巷7号2单元1层3号"
  },
  {
    "name": "腾福记大方火锅(亨特店)",
    "type": "火锅",
    "lng": 106.719221,
    "lat": 26.577672,
    "rating": 4.4,
    "cost": 42.0,
    "address": "文昌南路79号文昌苑综合楼1单元1层7号"
  },
  {
    "name": "街边地摊火锅(文昌阁店)",
    "type": "火锅",
    "lng": 106.719276,
    "lat": 26.577621,
    "rating": 4.4,
    "cost": 29.0,
    "address": "文昌南路79号"
  },
  {
    "name": "渝小生重庆火锅",
    "type": "火锅",
    "lng": 106.719288,
    "lat": 26.577596,
    "rating": 4.4,
    "cost": 55.0,
    "address": "文昌南路79号文昌苑综合楼A栋1层7号"
  },
  {
    "name": "十年老店转角火锅(蔡家街店)",
    "type": "火锅",
    "lng": 106.716785,
    "lat": 26.579268,
    "rating": 4.4,
    "cost": 76.0,
    "address": "洙泗巷52号华珠花园"
  },
  {
    "name": "拈三生重庆火锅(民生路店)",
    "type": "火锅",
    "lng": 106.716431,
    "lat": 26.579187,
    "rating": 4.4,
    "cost": 79.0,
    "address": "民生路47号1层3洙泗巷52号院1单元"
  },
  {
    "name": "陈氏人家豆米火锅(小十字店)",
    "type": "火锅",
    "lng": 106.716471,
    "lat": 26.578028,
    "rating": 4.4,
    "cost": 46.0,
    "address": "中山东路89号"
  },
  {
    "name": "独味乌江片片鱼火锅",
    "type": "火锅",
    "lng": 106.71488,
    "lat": 26.580201,
    "rating": 4.4,
    "cost": 47.0,
    "address": "富水中路104号"
  },
  {
    "name": "三流老火锅(暂停营业)",
    "type": "火锅",
    "lng": 106.717547,
    "lat": 26.579561,
    "rating": 4.4,
    "cost": 58.0,
    "address": "文昌阁街道弯弓街85号付2号"
  },
  {
    "name": "老俩口特色洋芋粑",
    "type": "特色餐饮",
    "lng": 106.716821,
    "lat": 26.581622,
    "rating": 4.4,
    "cost": 8.0,
    "address": "堰塘街1-1-1-1-2号"
  },
  {
    "name": "古早里台湾料理店(堰塘街3号院店)",
    "type": "特色餐饮",
    "lng": 106.716446,
    "lat": 26.581855,
    "rating": 4.4,
    "cost": 38.0,
    "address": "省府社区服务中心省府北街5号堰塘街3号院"
  },
  {
    "name": "22:22咖啡馆",
    "type": "咖啡馆",
    "lng": 106.719894,
    "lat": 26.582959,
    "rating": 4.4,
    "cost": 22.0,
    "address": "文昌北路传书巷22号2单元"
  },
  {
    "name": "土狗咖啡",
    "type": "咖啡馆",
    "lng": 106.718792,
    "lat": 26.582254,
    "rating": 4.4,
    "cost": 21.0,
    "address": "文昌北路君子巷83号"
  },
  {
    "name": "MIA咖啡馆(电台街)",
    "type": "咖啡馆",
    "lng": 106.71855,
    "lat": 26.581618,
    "rating": 4.4,
    "cost": 41.0,
    "address": "中东社区服务中心电台街100号"
  },
  {
    "name": "GTS coffee 电台街店",
    "type": "咖啡馆",
    "lng": 106.718894,
    "lat": 26.580566,
    "rating": 4.4,
    "cost": 37.0,
    "address": "电台街80号院文昌古境牌下左20米"
  },
  {
    "name": "Tiny Devil",
    "type": "咖啡馆",
    "lng": 106.719201,
    "lat": 26.584476,
    "rating": 4.4,
    "cost": 78.0,
    "address": "文昌北路华宫巷14号"
  },
  {
    "name": "251 Coffee&Blend",
    "type": "咖啡馆",
    "lng": 106.716905,
    "lat": 26.578326,
    "rating": 4.4,
    "cost": 45.0,
    "address": "文昌阁街道中山东路58号"
  },
  {
    "name": "瑞幸咖啡(贵阳亨特City MAll店)",
    "type": "咖啡馆",
    "lng": 106.719436,
    "lat": 26.576229,
    "rating": 4.4,
    "cost": 16.0,
    "address": "机场路18号亨特国际广场负一层1B号"
  },
  {
    "name": "luckin coffee 瑞幸咖啡(民生路10号院店)",
    "type": "咖啡馆",
    "lng": 106.715505,
    "lat": 26.579021,
    "rating": 4.4,
    "cost": 15.0,
    "address": "民生路22号"
  },
  {
    "name": "Robins知更鸟鲜花咖啡馆",
    "type": "咖啡馆",
    "lng": 106.715803,
    "lat": 26.585552,
    "rating": 4.4,
    "cost": 31.0,
    "address": "延安东路35号3楼至5楼"
  },
  {
    "name": "東来咖啡",
    "type": "咖啡馆",
    "lng": 106.729272,
    "lat": 26.580263,
    "rating": 4.4,
    "cost": 20.0,
    "address": "黔灵镇栖霞路1栋21号"
  },
  {
    "name": "灌木咖啡(民生路店)",
    "type": "咖啡馆",
    "lng": 106.714798,
    "lat": 26.579077,
    "rating": 4.4,
    "cost": 27.0,
    "address": "钰达大厦"
  },
  {
    "name": "Ode.Coffee(咖啡店)",
    "type": "咖啡馆",
    "lng": 106.714883,
    "lat": 26.585169,
    "rating": 4.4,
    "cost": 24.0,
    "address": "延安东路33号1栋102"
  },
  {
    "name": "鲨可咖啡",
    "type": "咖啡馆",
    "lng": 106.713225,
    "lat": 26.582906,
    "rating": 4.4,
    "cost": 38.0,
    "address": "中华中路148号南国花锦往前走蜜雪冰城巷子进来"
  },
  {
    "name": "慕昔提咖啡(喷水池店)",
    "type": "咖啡馆",
    "lng": 106.712995,
    "lat": 26.583351,
    "rating": 4.4,
    "cost": 39.0,
    "address": "中华社区服务中心中华中路178号驰宇大厦2楼"
  },
  {
    "name": "A.B.V Beer&Whisky Pub",
    "type": "酒吧",
    "lng": 106.717387,
    "lat": 26.560895,
    "rating": 4.4,
    "cost": 65.0,
    "address": "解放路202号"
  },
  {
    "name": "榕江牛瘪火锅(青云路店)",
    "type": "火锅",
    "lng": 106.715968,
    "lat": 26.564503,
    "rating": 4.4,
    "cost": 50.0,
    "address": "青云路45号(广味园斜对面)"
  },
  {
    "name": "知家鱼火锅",
    "type": "火锅",
    "lng": 106.72652,
    "lat": 26.566523,
    "rating": 4.4,
    "cost": 92.0,
    "address": "水一方花园东侧停车场内35号"
  },
  {
    "name": "灌木咖啡(逸天城店)",
    "type": "咖啡馆",
    "lng": 106.724983,
    "lat": 26.563354,
    "rating": 4.4,
    "cost": 36.0,
    "address": "中创龙园大厦1层3号(市南路南)"
  },
  {
    "name": "善利咖啡(金豪大厦店)",
    "type": "咖啡馆",
    "lng": 106.72013,
    "lat": 26.564322,
    "rating": 4.4,
    "cost": 39.0,
    "address": "石岭街9号金豪大厦F1层"
  },
  {
    "name": "灌木咖啡(贵钢店)",
    "type": "咖啡馆",
    "lng": 106.729816,
    "lat": 26.555283,
    "rating": 4.4,
    "cost": 37.0,
    "address": "德育路(红星美凯龙)(贵钢地铁站A口步行400米)"
  },
  {
    "name": "朴羽珈琲WhisperHeart(贵州省委机关小区店)",
    "type": "咖啡馆",
    "lng": 106.723589,
    "lat": 26.568921,
    "rating": 4.4,
    "cost": 35.0,
    "address": "南明东路12号"
  },
  {
    "name": "灌木咖啡(鸿通城店)",
    "type": "咖啡馆",
    "lng": 106.70738,
    "lat": 26.556428,
    "rating": 4.4,
    "cost": 40.0,
    "address": "遵义路街道解放路贵阳鸿通城二楼A区L2A14、L2A5"
  },
  {
    "name": "瑞幸咖啡(二七路美食城店)",
    "type": "咖啡馆",
    "lng": 106.707151,
    "lat": 26.55688,
    "rating": 4.4,
    "cost": 14.0,
    "address": "解放路100号鸿通城购物中心一层A42号"
  },
  {
    "name": "齐齐哈尔烤肉(威清路店)",
    "type": "烧烤",
    "lng": 106.698188,
    "lat": 26.584917,
    "rating": 4.4,
    "cost": 75.0,
    "address": "威清路344号2栋2-3单元1层101号"
  },
  {
    "name": "遵义化工厂烤鸡(云岩店)",
    "type": "烧烤",
    "lng": 106.701071,
    "lat": 26.585774,
    "rating": 4.4,
    "cost": 39.0,
    "address": "威清路83-21号"
  },
  {
    "name": "胖大姐烧烤",
    "type": "烧烤",
    "lng": 106.705492,
    "lat": 26.584117,
    "rating": 4.4,
    "cost": 60.0,
    "address": "交易路与瑞金北路交叉口东60米"
  },
  {
    "name": "霖的大油边东北烧烤",
    "type": "烧烤",
    "lng": 106.691218,
    "lat": 26.577574,
    "rating": 4.4,
    "cost": 60.0,
    "address": "龙潭巷二号附1号"
  },
  {
    "name": "朱记竹签烤肉店(城基路店)",
    "type": "烧烤",
    "lng": 106.706316,
    "lat": 26.584727,
    "rating": 4.4,
    "cost": 57.0,
    "address": "青禾街12号(紫林庵地铁站C口步行320米)"
  },
  {
    "name": "老字号留一手特色烤鱼(城基路店)",
    "type": "烧烤",
    "lng": 106.70618,
    "lat": 26.585148,
    "rating": 4.4,
    "cost": 44.0,
    "address": "城基路109号"
  },
  {
    "name": "安阳传统老贵阳铁签烤肉黔灵西路总店",
    "type": "烧烤",
    "lng": 106.705978,
    "lat": 26.58632,
    "rating": 4.4,
    "cost": 55.0,
    "address": "黔灵西路280号一楼一单元2号"
  },
  {
    "name": "蒲乐浩斯酒吧(文创店)",
    "type": "酒吧",
    "lng": 106.699085,
    "lat": 26.574879,
    "rating": 4.4,
    "cost": 60.0,
    "address": "花香村如意巷10号"
  },
  {
    "name": "乌蒙深处MUSICHOUSE贵阳旗舰店",
    "type": "酒吧",
    "lng": 106.706539,
    "lat": 26.582708,
    "rating": 4.4,
    "cost": 86.0,
    "address": "延安中路103号(紫林庵地铁站B口步行180米)"
  },
  {
    "name": "血月music·party",
    "type": "酒吧",
    "lng": 106.700935,
    "lat": 26.589325,
    "rating": 4.4,
    "cost": 68.0,
    "address": "北新区路49号新苑小区"
  },
  {
    "name": "醺觅SeekMe",
    "type": "酒吧",
    "lng": 106.709493,
    "lat": 26.581981,
    "rating": 4.4,
    "cost": 43.0,
    "address": "岳英街金沙街路口(喷水池地铁站出入口步行210米)"
  },
  {
    "name": "仝 TONIC BAR(太平路店)",
    "type": "酒吧",
    "lng": 106.710321,
    "lat": 26.581878,
    "rating": 4.4,
    "cost": 33.0,
    "address": "太平路一号(喷水池地铁站G口步行190米)"
  },
  {
    "name": "MANA跳舞俱乐部(太平路店)",
    "type": "酒吧",
    "lng": 106.7111,
    "lat": 26.581912,
    "rating": 4.4,
    "cost": 98.0,
    "address": "太平路36号2楼(喷水池地铁站G口步行280米)"
  },
  {
    "name": "NO·36精酿酒吧(太平路店)",
    "type": "酒吧",
    "lng": 106.711099,
    "lat": 26.581804,
    "rating": 4.4,
    "cost": 61.0,
    "address": "太平路36号(喷水池地铁站G口步行260米)"
  },
  {
    "name": "Double酒馆(太平路店)",
    "type": "酒吧",
    "lng": 106.71134,
    "lat": 26.58178,
    "rating": 4.4,
    "cost": 80.0,
    "address": "喷水池太平路30号(龙港百盛旁)"
  },
  {
    "name": "行樂live",
    "type": "酒吧",
    "lng": 106.711953,
    "lat": 26.585538,
    "rating": 4.4,
    "cost": 60.0,
    "address": "中华北路11号"
  },
  {
    "name": "Bar Nostalgia(南国花锦店)",
    "type": "酒吧",
    "lng": 106.712804,
    "lat": 26.581711,
    "rating": 4.4,
    "cost": 83.0,
    "address": "中华中路120号金凤凰大厦北楼F13层"
  },
  {
    "name": "xpink咖啡与酒",
    "type": "酒吧",
    "lng": 106.710675,
    "lat": 26.588958,
    "rating": 4.4,
    "cost": 58.0,
    "address": "北横巷22号"
  },
  {
    "name": "小木屋(延安北巷店)",
    "type": "火锅",
    "lng": 106.700197,
    "lat": 26.583837,
    "rating": 4.4,
    "cost": 34.0,
    "address": "延安巷69号(延安西路地铁站C口步行320米)"
  },
  {
    "name": "渔香岛美蛙鱼头火锅(威清路总店)",
    "type": "火锅",
    "lng": 106.699463,
    "lat": 26.585451,
    "rating": 4.4,
    "cost": 72.0,
    "address": "威清路119-20号"
  },
  {
    "name": "老字号朱记红油串",
    "type": "火锅",
    "lng": 106.695634,
    "lat": 26.585229,
    "rating": 4.4,
    "cost": 21.0,
    "address": "双峰南巷三号院(黔灵山公园地铁站D1口步行270米)"
  },
  {
    "name": "水西芸豆米火锅(黔灵山公园店)",
    "type": "火锅",
    "lng": 106.6995,
    "lat": 26.587738,
    "rating": 4.4,
    "cost": 47.0,
    "address": "北京路170号劲嘉·黔灵广场一期3层14号"
  },
  {
    "name": "谢幺妹特色豆米火锅(双峰路店)",
    "type": "火锅",
    "lng": 106.692511,
    "lat": 26.586747,
    "rating": 4.4,
    "cost": 33.0,
    "address": "头桥社区服务中心双峰路78号"
  },
  {
    "name": "廖幺哥羌族风味干香脆肚火锅",
    "type": "火锅",
    "lng": 106.694154,
    "lat": 26.574696,
    "rating": 4.4,
    "cost": 46.0,
    "address": "金龙社区服务中心金顶山金谷街2号"
  },
  {
    "name": "一品香餐厅(汇金店)",
    "type": "特色餐饮",
    "lng": 106.701976,
    "lat": 26.581442,
    "rating": 4.4,
    "cost": 112.0,
    "address": "汇金星力城五楼5002一品香餐厅"
  },
  {
    "name": "云芝蓝拾味餐厅(威清路店)",
    "type": "特色餐饮",
    "lng": 106.702525,
    "lat": 26.585825,
    "rating": 4.4,
    "cost": 22.0,
    "address": "威清路与鲤鱼街交叉口西南60米"
  },
  {
    "name": "luckin coffee 瑞幸咖啡(威清商住楼店)",
    "type": "咖啡馆",
    "lng": 106.698572,
    "lat": 26.585089,
    "rating": 4.4,
    "cost": 18.0,
    "address": "威清路163号威清商住楼"
  },
  {
    "name": "灌木咖啡(汇金星力城店)",
    "type": "咖啡馆",
    "lng": 106.702162,
    "lat": 26.581702,
    "rating": 4.4,
    "cost": 38.0,
    "address": "汇金星力城二楼(紫林庵地铁站F口步行100米)"
  },
  {
    "name": "星巴克(贵阳汇金国际广场店)",
    "type": "咖啡馆",
    "lng": 106.70302,
    "lat": 26.581699,
    "rating": 4.4,
    "cost": 41.0,
    "address": "延安西路42号-66号汇金国际广场零售商区地上第一层01F1014N"
  },
  {
    "name": "向理咖啡",
    "type": "咖啡馆",
    "lng": 106.704777,
    "lat": 26.579531,
    "rating": 4.4,
    "cost": 18.0,
    "address": "瑞金西巷7号103(紫林庵地铁站A口步行330米)"
  },
  {
    "name": "瑞幸咖啡(黔灵山公园店)",
    "type": "咖啡馆",
    "lng": 106.696508,
    "lat": 26.589295,
    "rating": 4.4,
    "cost": 16.0,
    "address": "枣山路187号黔灵山公园游客服务中心负一层30-31号"
  },
  {
    "name": "彩石滩咖啡屋",
    "type": "咖啡馆",
    "lng": 106.702533,
    "lat": 26.588883,
    "rating": 4.4,
    "cost": 59.0,
    "address": "北新区路31号"
  },
  {
    "name": "tableland着陆咖啡",
    "type": "咖啡馆",
    "lng": 106.707105,
    "lat": 26.585907,
    "rating": 4.4,
    "cost": 50.0,
    "address": "黔灵西路108号院勇惠超市转弯上坡20米"
  },
  {
    "name": "星巴克贵阳银海元隆店",
    "type": "咖啡馆",
    "lng": 106.703463,
    "lat": 26.592017,
    "rating": 4.4,
    "cost": 42.0,
    "address": "北京路221号"
  },
  {
    "name": "雪咖啡 Bar·SnowLab Coffee(太平路店)",
    "type": "咖啡馆",
    "lng": 106.710672,
    "lat": 26.58202,
    "rating": 4.4,
    "cost": 37.0,
    "address": "太平路与贡院巷交叉口东40米"
  },
  {
    "name": "灌木咖啡(银海元隆店)",
    "type": "咖啡馆",
    "lng": 106.703532,
    "lat": 26.592424,
    "rating": 4.4,
    "cost": 33.0,
    "address": "北京路203号银海元隆广场1F层"
  },
  {
    "name": "维多利亚咖啡厅(毓秀店)",
    "type": "咖啡馆",
    "lng": 106.710622,
    "lat": 26.587729,
    "rating": 4.4,
    "cost": 41.0,
    "address": "毓秀路22号"
  },
  {
    "name": "狮子桥老字号烤肉(飞机坝20年老店)",
    "type": "烧烤",
    "lng": 106.70575,
    "lat": 26.558774,
    "rating": 4.4,
    "cost": 34.0,
    "address": "第三实验小学西南门西50米"
  },
  {
    "name": "老奶烧烤",
    "type": "烧烤",
    "lng": 106.685864,
    "lat": 26.558886,
    "rating": 4.4,
    "cost": 49.0,
    "address": "野猫井阁老巷58号附4号"
  },
  {
    "name": "塘屋烧烤·火塘烧烤贵阳总店(花果园店)",
    "type": "烧烤",
    "lng": 106.687895,
    "lat": 26.564562,
    "rating": 4.4,
    "cost": 54.0,
    "address": "花果园街道花果园1号楼单元1号"
  },
  {
    "name": "民谣集烧烤酒馆(贵阳花果园店)",
    "type": "烧烤",
    "lng": 106.68744,
    "lat": 26.564221,
    "rating": 4.4,
    "cost": 56.0,
    "address": "贵州省贵阳市南明区花果园街道久遇Park1号楼L3-6"
  },
  {
    "name": "南木错民谣音乐酒馆(左藏三库店)",
    "type": "酒吧",
    "lng": 106.688454,
    "lat": 26.559489,
    "rating": 4.4,
    "cost": 62.0,
    "address": "左藏三库泛平艺术区"
  },
  {
    "name": "黑森林酒吧(贵阳久遇PARK店)",
    "type": "酒吧",
    "lng": 106.687402,
    "lat": 26.564228,
    "rating": 4.4,
    "cost": 72.0,
    "address": "花果园街道花果园项目商业1号2-6号花果园办事处"
  },
  {
    "name": "森楠Bar",
    "type": "酒吧",
    "lng": 106.686375,
    "lat": 26.562725,
    "rating": 4.4,
    "cost": 50.0,
    "address": "花果园国际中心1号2层42"
  },
  {
    "name": "菲林酒吧(花果园大街店)",
    "type": "酒吧",
    "lng": 106.6909,
    "lat": 26.567555,
    "rating": 4.4,
    "cost": 41.0,
    "address": "花果园大街73号"
  },
  {
    "name": "曼卡咖啡&酒馆(花果园店)",
    "type": "酒吧",
    "lng": 106.693181,
    "lat": 26.56897,
    "rating": 4.4,
    "cost": 23.0,
    "address": "花果园大街73号花果园B区南区"
  },
  {
    "name": "Pink品客娱乐",
    "type": "酒吧",
    "lng": 106.689922,
    "lat": 26.567323,
    "rating": 4.4,
    "cost": 113.0,
    "address": "花果园大街花果园购物中心G区1F77-78号店铺"
  },
  {
    "name": "MISTSKYBAR(贵阳花果园店)",
    "type": "酒吧",
    "lng": 106.689425,
    "lat": 26.567675,
    "rating": 4.4,
    "cost": 69.0,
    "address": "花果园大街1号花果园购物中心"
  },
  {
    "name": "黑森林酒吧(贵阳花果园店)",
    "type": "酒吧",
    "lng": 106.691523,
    "lat": 26.569315,
    "rating": 4.4,
    "cost": 88.0,
    "address": "花果园街道办事处商铺F区3栋二至四层302号"
  },
  {
    "name": "祖卡酒吧",
    "type": "酒吧",
    "lng": 106.690731,
    "lat": 26.569544,
    "rating": 4.4,
    "cost": 60.0,
    "address": "花果园后街F区1-2、4-5栋2层2213号中汇美时尚A区25号"
  },
  {
    "name": "音乐派KTV(贵阳万象城店)",
    "type": "火锅",
    "lng": 106.702839,
    "lat": 26.561604,
    "rating": 4.4,
    "cost": 69.0,
    "address": "遵义路328号贵阳万象城L4层L401号"
  },
  {
    "name": "重庆印象火锅(鸿通城店)",
    "type": "火锅",
    "lng": 106.706325,
    "lat": 26.556322,
    "rating": 4.4,
    "cost": 49.0,
    "address": "鸿通城购物中心西5号门西南150米"
  },
  {
    "name": "大红花重庆火锅",
    "type": "火锅",
    "lng": 106.699085,
    "lat": 26.567082,
    "rating": 4.4,
    "cost": 66.0,
    "address": "贵惠路173号"
  },
  {
    "name": "COTTON.BLUE COFFEE",
    "type": "咖啡馆",
    "lng": 106.698365,
    "lat": 26.56244,
    "rating": 4.4,
    "cost": 30.0,
    "address": "体育路与解放路交叉口西南240米"
  },
  {
    "name": "瑞幸咖啡(贵阳万象城店)",
    "type": "咖啡馆",
    "lng": 106.703125,
    "lat": 26.560723,
    "rating": 4.4,
    "cost": 15.0,
    "address": "遵义路328号贵阳万象城"
  },
  {
    "name": "Manner Coffee(贵阳万象城店)",
    "type": "咖啡馆",
    "lng": 106.703707,
    "lat": 26.56014,
    "rating": 4.4,
    "cost": 20.0,
    "address": "遵义路街道遵义路328号贵阳万象城L楼"
  },
  {
    "name": "灌木咖啡总部(融创九璟湾店)",
    "type": "咖啡馆",
    "lng": 106.692325,
    "lat": 26.555425,
    "rating": 4.4,
    "cost": 35.0,
    "address": "融创九璟湾"
  },
  {
    "name": "星巴克臻选贵阳万象城店",
    "type": "咖啡馆",
    "lng": 106.704438,
    "lat": 26.557016,
    "rating": 4.4,
    "cost": 32.0,
    "address": "遵义路街道遵义路21号"
  },
  {
    "name": "灌木咖啡(花果园C区白宫店)",
    "type": "咖啡馆",
    "lng": 106.686975,
    "lat": 26.563375,
    "rating": 4.4,
    "cost": 34.0,
    "address": "花果园国际中心南明区C区15栋1楼"
  },
  {
    "name": "慕昔提咖啡(久遇PARK店)",
    "type": "咖啡馆",
    "lng": 106.687331,
    "lat": 26.564266,
    "rating": 4.4,
    "cost": 41.0,
    "address": "花果园街道花果园项目商业1号楼单元1号自编号2-7号"
  },
  {
    "name": "慕昔提咖啡(贵阳国际中心2号店)",
    "type": "咖啡馆",
    "lng": 106.685785,
    "lat": 26.562129,
    "rating": 4.4,
    "cost": 29.0,
    "address": "花果园大街113号(花果园地铁站D口步行400米)"
  },
  {
    "name": "禾与舟咖啡",
    "type": "咖啡馆",
    "lng": 106.691414,
    "lat": 26.568833,
    "rating": 4.4,
    "cost": 30.0,
    "address": "花果园中央商务区3号2-1(购物中心KFC对面)"
  },
  {
    "name": "灌木咖啡(中央商务区店)",
    "type": "咖啡馆",
    "lng": 106.692207,
    "lat": 26.569451,
    "rating": 4.4,
    "cost": 40.0,
    "address": "中央商务区6号(松花路地铁站B口步行290米)"
  },
  {
    "name": "瑞幸咖啡(中央商务区3号楼店)",
    "type": "咖啡馆",
    "lng": 106.691551,
    "lat": 26.569248,
    "rating": 4.4,
    "cost": 18.0,
    "address": "花果园大街3号中央商务区F区3号楼一层16号"
  },
  {
    "name": "蓝咖啡·Blue Coffee(暂停营业)",
    "type": "咖啡馆",
    "lng": 106.698439,
    "lat": 26.562445,
    "rating": 4.4,
    "cost": 42.0,
    "address": "体育路10号12栋"
  },
  {
    "name": "袁味烤肉海鲜美食店(兴关店)",
    "type": "烧烤",
    "lng": 106.713483,
    "lat": 26.564737,
    "rating": 4.3,
    "cost": 62.0,
    "address": "兴关路42号"
  },
  {
    "name": "唐万全烤肉店",
    "type": "烧烤",
    "lng": 106.713041,
    "lat": 26.563888,
    "rating": 4.3,
    "cost": 77.0,
    "address": "兴关路57号美食烤肉老字号小吃地方特色烧烤"
  },
  {
    "name": "牧羊庄烤全羊(南明店)",
    "type": "烧烤",
    "lng": 106.70721,
    "lat": 26.576216,
    "rating": 4.3,
    "cost": 132.0,
    "address": "瑞金南路2号(金桥饭店内)"
  },
  {
    "name": "棉纺厂老八栋烧烤(贵棉小区店)",
    "type": "烧烤",
    "lng": 106.712163,
    "lat": 26.562001,
    "rating": 4.3,
    "cost": 51.0,
    "address": "兴关路人才市场正对面152号"
  },
  {
    "name": "徐哥脑花(贵阳总店)",
    "type": "烧烤",
    "lng": 106.701349,
    "lat": 26.573488,
    "rating": 4.3,
    "cost": 56.0,
    "address": "花溪大道北段29号溪饭店旁"
  },
  {
    "name": "宋文成烤肉(白沙巷店)",
    "type": "烧烤",
    "lng": 106.715849,
    "lat": 26.576974,
    "rating": 4.3,
    "cost": 40.0,
    "address": "白沙巷(银座影院后侧)"
  },
  {
    "name": "缸桶屋韩式烤肉(公园路店)",
    "type": "烧烤",
    "lng": 106.710744,
    "lat": 26.579658,
    "rating": 4.3,
    "cost": 80.0,
    "address": "省府西路与人民大道交叉口东80米"
  },
  {
    "name": "暴跳肉蕾新派贵阳烧烤",
    "type": "烧烤",
    "lng": 106.699141,
    "lat": 26.567005,
    "rating": 4.3,
    "cost": 82.0,
    "address": "贵惠路175号"
  },
  {
    "name": "方长Fun&Change Bar(富都大厦店)",
    "type": "酒吧",
    "lng": 106.715217,
    "lat": 26.573795,
    "rating": 4.3,
    "cost": 39.0,
    "address": "富水南路123号富都大厦负1-1号"
  },
  {
    "name": "易楊Dream Making",
    "type": "酒吧",
    "lng": 106.71436,
    "lat": 26.574668,
    "rating": 4.3,
    "cost": 60.0,
    "address": "中华南路36号"
  },
  {
    "name": "FullFull OYUDO BAR·福窝",
    "type": "酒吧",
    "lng": 106.716625,
    "lat": 26.571875,
    "rating": 4.3,
    "cost": 60.0,
    "address": "富水南路196号贵州国际商城31层3号"
  },
  {
    "name": "抿吧Minbar",
    "type": "酒吧",
    "lng": 106.714497,
    "lat": 26.575201,
    "rating": 4.3,
    "cost": 60.0,
    "address": "中华南路街道醒狮路28号1幢1单元6层6-1号"
  },
  {
    "name": "Orangutan Bunker猩猩地堡贵阳店",
    "type": "酒吧",
    "lng": 106.715947,
    "lat": 26.574079,
    "rating": 4.3,
    "cost": 189.0,
    "address": "泰祥国际B座一层1号"
  },
  {
    "name": "TripSmith Joying Room饮食间(青云市集店)",
    "type": "酒吧",
    "lng": 106.715775,
    "lat": 26.563975,
    "rating": 4.3,
    "cost": 60.0,
    "address": "兴关路街道青云路83号青云市集A-1-98号"
  },
  {
    "name": "山寻Bar",
    "type": "酒吧",
    "lng": 106.7144,
    "lat": 26.57752,
    "rating": 4.3,
    "cost": 72.0,
    "address": "正山街与中山东路交叉口东北20米"
  },
  {
    "name": "夜境酒吧(暂停营业)",
    "type": "酒吧",
    "lng": 106.711165,
    "lat": 26.57671,
    "rating": 4.3,
    "cost": 115.0,
    "address": "大十字半茶半咖1层(中山西路地铁站E口步行210米)"
  },
  {
    "name": "CUCKOO café & bar",
    "type": "酒吧",
    "lng": 106.716756,
    "lat": 26.577499,
    "rating": 4.3,
    "cost": 66.0,
    "address": "文昌阁街道中山东路169号5栋1单元1层1号"
  },
  {
    "name": "TRIOS",
    "type": "酒吧",
    "lng": 106.716629,
    "lat": 26.561843,
    "rating": 4.3,
    "cost": 60.0,
    "address": "新星变压器厂内"
  },
  {
    "name": "平安小馆SUPER A!",
    "type": "酒吧",
    "lng": 106.711281,
    "lat": 26.580028,
    "rating": 4.3,
    "cost": 38.0,
    "address": "省府西路26号(中山西路地铁站F口步行380米)"
  },
  {
    "name": "顶楼Aerie Canvas&Cork",
    "type": "酒吧",
    "lng": 106.713076,
    "lat": 26.580359,
    "rating": 4.3,
    "cost": 60.0,
    "address": "勇烈路40号泰联大厦b座F18层"
  },
  {
    "name": "一小坨肉豆豉粑火锅",
    "type": "火锅",
    "lng": 106.710059,
    "lat": 26.574534,
    "rating": 4.3,
    "cost": 32.0,
    "address": "法院街(中山西路地铁站D口步行210米)"
  },
  {
    "name": "巷子孃孃酸汤火锅(展览馆店)",
    "type": "火锅",
    "lng": 106.708162,
    "lat": 26.56488,
    "rating": 4.3,
    "cost": 37.0,
    "address": "遵义路276号"
  },
  {
    "name": "得乐贵州虾酸风味火锅",
    "type": "火锅",
    "lng": 106.715307,
    "lat": 26.566612,
    "rating": 4.3,
    "cost": 42.0,
    "address": "兴隆街55-57号"
  },
  {
    "name": "原汤豆米火锅(兴隆街店)",
    "type": "火锅",
    "lng": 106.716608,
    "lat": 26.567449,
    "rating": 4.3,
    "cost": 45.0,
    "address": "兴隆街2-1-6"
  },
  {
    "name": "幺二三地摊火锅",
    "type": "火锅",
    "lng": 106.713735,
    "lat": 26.564342,
    "rating": 4.3,
    "cost": 44.0,
    "address": "兴关路11号6-7"
  },
  {
    "name": "有间油渣豆豉火锅. 辣子鸡火锅",
    "type": "火锅",
    "lng": 106.716217,
    "lat": 26.573606,
    "rating": 4.3,
    "cost": 56.0,
    "address": "富水南路188号一层24号"
  },
  {
    "name": "腾六爷鱼酱酸汤火锅",
    "type": "火锅",
    "lng": 106.716124,
    "lat": 26.573862,
    "rating": 4.3,
    "cost": 47.0,
    "address": "泰祥·国际商办楼"
  },
  {
    "name": "霸道火锅串串(铜锣湾广场店)",
    "type": "火锅",
    "lng": 106.711285,
    "lat": 26.57678,
    "rating": 4.3,
    "cost": 52.0,
    "address": "铜锣湾广场(中山西路地铁站E口步行190米)"
  },
  {
    "name": "周记药膳羊肉火锅店",
    "type": "火锅",
    "lng": 106.702696,
    "lat": 26.572723,
    "rating": 4.3,
    "cost": 32.0,
    "address": "河滨社区服务中心瑞金南路81号12栋一楼"
  },
  {
    "name": "海底捞火锅(青云路店)(暂停营业)",
    "type": "火锅",
    "lng": 106.715062,
    "lat": 26.564392,
    "rating": 4.3,
    "cost": 77.0,
    "address": "兴关路街道青云路83号青云市集A栋3F"
  },
  {
    "name": "野山舂·贵州现舂酸汤牛肉(甲秀楼店)",
    "type": "火锅",
    "lng": 106.717342,
    "lat": 26.573133,
    "rating": 4.3,
    "cost": 52.0,
    "address": "护国路137号"
  },
  {
    "name": "芳芳辣椒青云路店",
    "type": "特色餐饮",
    "lng": 106.710888,
    "lat": 26.565691,
    "rating": 4.3,
    "cost": 60.0,
    "address": "青云路喜百年对面尚义路小学门口LJ027-2号芳芳辣椒"
  },
  {
    "name": "Orin Coffee·欧林可啡",
    "type": "咖啡馆",
    "lng": 106.714979,
    "lat": 26.573323,
    "rating": 4.3,
    "cost": 40.0,
    "address": "中华南路街道富水南路189号8单元1层6号"
  },
  {
    "name": "瑞幸咖啡(荔星名店店)",
    "type": "咖啡馆",
    "lng": 106.71679,
    "lat": 26.57227,
    "rating": 4.3,
    "cost": 21.0,
    "address": "富水南路2号荔星名店A座二层1号"
  },
  {
    "name": "灌木咖啡(荔星名店)",
    "type": "咖啡馆",
    "lng": 106.717064,
    "lat": 26.572516,
    "rating": 4.3,
    "cost": 39.0,
    "address": "富水南路2号荔星名店A座F1层"
  },
  {
    "name": "半茶半咖(日咖夜酒)",
    "type": "咖啡馆",
    "lng": 106.711307,
    "lat": 26.577016,
    "rating": 4.3,
    "cost": 25.0,
    "address": "中华南路街道市府路1号懿府1层1A号"
  },
  {
    "name": "物与咖啡",
    "type": "咖啡馆",
    "lng": 106.713975,
    "lat": 26.576457,
    "rating": 4.3,
    "cost": 30.0,
    "address": "汉湘街39号"
  },
  {
    "name": "慕昔提咖啡(恒丰步行街店)",
    "type": "咖啡馆",
    "lng": 106.709183,
    "lat": 26.577632,
    "rating": 4.3,
    "cost": 33.0,
    "address": "国恒百货南门东60米(中山西路地铁站A口旁)"
  },
  {
    "name": "银流咖啡&贝果",
    "type": "咖啡馆",
    "lng": 106.710092,
    "lat": 26.577933,
    "rating": 4.3,
    "cost": 20.0,
    "address": "中山西路地铁站F口向北步行70米"
  },
  {
    "name": "慕昔提咖啡贵阳壹号店",
    "type": "咖啡馆",
    "lng": 106.713509,
    "lat": 26.577527,
    "rating": 4.3,
    "cost": 37.0,
    "address": "文昌阁街道中华中路2号贵阳一号购物中心LG层"
  },
  {
    "name": "瑞幸咖啡(THEONE购物中心店)",
    "type": "咖啡馆",
    "lng": 106.713548,
    "lat": 26.577673,
    "rating": 4.3,
    "cost": 13.0,
    "address": "中华中路2号THEONE购物中心店LG层16号"
  },
  {
    "name": "代数学家algebraist(贵阳青云路店)",
    "type": "咖啡馆",
    "lng": 106.71682,
    "lat": 26.564129,
    "rating": 4.3,
    "cost": 29.0,
    "address": "兴关路街道青云路与环南巷交汇处自编号103号"
  },
  {
    "name": "BeanStar比星咖啡(贵阳青云路店)",
    "type": "咖啡馆",
    "lng": 106.717496,
    "lat": 26.564796,
    "rating": 4.3,
    "cost": 15.0,
    "address": "金熙府1层停车场入口23号"
  },
  {
    "name": "小罗烤五花肉(文昌北路店)",
    "type": "烧烤",
    "lng": 106.719787,
    "lat": 26.581533,
    "rating": 4.3,
    "cost": 29.0,
    "address": "文昌北路荷叶巷2号"
  },
  {
    "name": "文昌阁小陈烤肉店(文昌北路店)",
    "type": "烧烤",
    "lng": 106.719426,
    "lat": 26.581488,
    "rating": 4.3,
    "cost": 62.0,
    "address": "文昌北路与君子巷交叉口南80米"
  },
  {
    "name": "朱记竹签烤肉(城基路分店)",
    "type": "烧烤",
    "lng": 106.718961,
    "lat": 26.583438,
    "rating": 4.3,
    "cost": 30.0,
    "address": "九华路4号"
  },
  {
    "name": "莲花坡小吕烤肉(文昌阁店)",
    "type": "烧烤",
    "lng": 106.719425,
    "lat": 26.579751,
    "rating": 4.3,
    "cost": 28.0,
    "address": "文昌北路65号(鱼米捞对面)"
  },
  {
    "name": "毛哥老贵阳烤鸡(黔东九华大院店)",
    "type": "烧烤",
    "lng": 106.721713,
    "lat": 26.585449,
    "rating": 4.3,
    "cost": 53.0,
    "address": "宝山北路163号(阳明祠地铁站C口步行260米)"
  },
  {
    "name": "杨老五特色烤肉(总店)",
    "type": "烧烤",
    "lng": 106.718662,
    "lat": 26.579011,
    "rating": 4.3,
    "cost": 52.0,
    "address": "电台街74号"
  },
  {
    "name": "柴味烤肉(文明路店)",
    "type": "烧烤",
    "lng": 106.717179,
    "lat": 26.580331,
    "rating": 4.3,
    "cost": 48.0,
    "address": "文明路46-2号(二中路口)"
  },
  {
    "name": "张小花铁签",
    "type": "烧烤",
    "lng": 106.717209,
    "lat": 26.580122,
    "rating": 4.3,
    "cost": 33.0,
    "address": "文明路4号106"
  },
  {
    "name": "虾京华袁记馋猫烤鱼(旭东路店)",
    "type": "烧烤",
    "lng": 106.723819,
    "lat": 26.58717,
    "rating": 4.3,
    "cost": 40.0,
    "address": "旭东路119号门面(阳明祠地铁站C口步行350米)"
  },
  {
    "name": "T·W花园烧烤(宝山南路店)",
    "type": "烧烤",
    "lng": 106.725284,
    "lat": 26.576818,
    "rating": 4.3,
    "cost": 34.0,
    "address": "宝山南路辅路与都司高架桥路交叉口北120米"
  },
  {
    "name": "牛X铁签烤牛肉",
    "type": "烧烤",
    "lng": 106.717459,
    "lat": 26.58679,
    "rating": 4.3,
    "cost": 63.0,
    "address": "友谊路16号"
  },
  {
    "name": "同吉烤肉",
    "type": "烧烤",
    "lng": 106.715585,
    "lat": 26.586998,
    "rating": 4.3,
    "cost": 34.0,
    "address": "黔灵东路84号2号楼102号"
  },
  {
    "name": "黔派风味豆豉粑火锅",
    "type": "火锅",
    "lng": 106.72329,
    "lat": 26.585467,
    "rating": 4.3,
    "cost": 61.0,
    "address": "宝山北路86号一栋(维也纳酒店大门对面)"
  },
  {
    "name": "唇律·南山重庆老火锅(文昌阁店)",
    "type": "火锅",
    "lng": 106.718773,
    "lat": 26.579241,
    "rating": 4.3,
    "cost": 84.0,
    "address": "中东社区服务中心电台街90号"
  },
  {
    "name": "郭萍牛肉火锅(国土局小区店)",
    "type": "火锅",
    "lng": 106.719118,
    "lat": 26.585138,
    "rating": 4.3,
    "cost": 65.0,
    "address": "黔东社区服务中心文昌北路筑东巷14号国土局小区"
  },
  {
    "name": "黔御厨酸汤豆米火锅(煤矿村全国总店)",
    "type": "火锅",
    "lng": 106.723668,
    "lat": 26.586756,
    "rating": 4.3,
    "cost": 43.0,
    "address": "旭东路52号(建设银行旁)"
  },
  {
    "name": "傻江重庆老火锅(小十字店)",
    "type": "火锅",
    "lng": 106.716957,
    "lat": 26.57831,
    "rating": 4.3,
    "cost": 72.0,
    "address": "中东社区服务中心中山东路49号"
  },
  {
    "name": "长乐晓馆",
    "type": "火锅",
    "lng": 106.715936,
    "lat": 26.584571,
    "rating": 4.3,
    "cost": 74.0,
    "address": "文昌阁街道下河坎街9号1幢1层1号"
  },
  {
    "name": "宽窄巷子老火锅东山店",
    "type": "火锅",
    "lng": 106.729275,
    "lat": 26.581244,
    "rating": 4.3,
    "cost": 40.0,
    "address": "黔灵镇东山村新组11号"
  },
  {
    "name": "八仙菁粹黔菜餐厅(省府路店)",
    "type": "特色餐饮",
    "lng": 106.716236,
    "lat": 26.580824,
    "rating": 4.3,
    "cost": 105.0,
    "address": "省府东街101号"
  },
  {
    "name": "云岩区黔飨妹壹只烤鸡店(暂停营业)",
    "type": "特色餐饮",
    "lng": 106.71945,
    "lat": 26.58245,
    "rating": 4.3,
    "cost": 49.0,
    "address": "文昌阁街道传书巷6号"
  },
  {
    "name": "DOU咖啡.精酿.鸡尾酒",
    "type": "咖啡馆",
    "lng": 106.72061,
    "lat": 26.579516,
    "rating": 4.3,
    "cost": 35.0,
    "address": "东新路与文昌北路交叉口东100米"
  },
  {
    "name": "福禄咖啡",
    "type": "咖啡馆",
    "lng": 106.717696,
    "lat": 26.580789,
    "rating": 4.3,
    "cost": 31.0,
    "address": "文笔街与电台街交叉口西60米"
  },
  {
    "name": "哦丫藏式咖啡馆( OY coffee )",
    "type": "咖啡馆",
    "lng": 106.720937,
    "lat": 26.578069,
    "rating": 4.3,
    "cost": 31.0,
    "address": "中山东路227号1幢5单元(省医大门斜对面涂鸦巷入口)OY coffee"
  },
  {
    "name": "瑞幸咖啡(云岩区师大店)",
    "type": "咖啡馆",
    "lng": 106.718613,
    "lat": 26.585882,
    "rating": 4.3,
    "cost": 14.0,
    "address": "延安东路166号底商"
  },
  {
    "name": "瑞幸咖啡(贵阳中山东路店)",
    "type": "咖啡馆",
    "lng": 106.718352,
    "lat": 26.577844,
    "rating": 4.3,
    "cost": 15.0,
    "address": "护国路2单元1层5号底商"
  },
  {
    "name": "T:W cafe",
    "type": "咖啡馆",
    "lng": 106.725275,
    "lat": 26.576725,
    "rating": 4.3,
    "cost": 32.0,
    "address": "宝山南路8号(省人民医院地铁站C口步行100米)"
  },
  {
    "name": "七时芝士(贵山苑店)",
    "type": "咖啡馆",
    "lng": 106.715475,
    "lat": 26.579925,
    "rating": 4.3,
    "cost": 48.0,
    "address": "文昌阁街道贵山街1号贵山苑A栋1层1-1号"
  },
  {
    "name": "系咖啡",
    "type": "咖啡馆",
    "lng": 106.717861,
    "lat": 26.577002,
    "rating": 4.3,
    "cost": 39.0,
    "address": "护国路186号"
  },
  {
    "name": "屋顶咖啡(亨特店)",
    "type": "咖啡馆",
    "lng": 106.718829,
    "lat": 26.576223,
    "rating": 4.3,
    "cost": 40.0,
    "address": "文昌南路40号文昌第居F30层"
  },
  {
    "name": "灌木咖啡(富水北路店)",
    "type": "咖啡馆",
    "lng": 106.714821,
    "lat": 26.584367,
    "rating": 4.3,
    "cost": 29.0,
    "address": "富水北路68号物资中心三楼301号"
  },
  {
    "name": "暮客咖啡(小十字省府路店)",
    "type": "咖啡馆",
    "lng": 106.714467,
    "lat": 26.580331,
    "rating": 4.3,
    "cost": 29.0,
    "address": "省府路8号外贸粮油大厦2楼"
  },
  {
    "name": "代数学家algebraist(民权路店)",
    "type": "咖啡馆",
    "lng": 106.713344,
    "lat": 26.581724,
    "rating": 4.3,
    "cost": 26.0,
    "address": "文昌阁街道民权路5号B栋一层14号附3号"
  },
  {
    "name": "瑞幸咖啡(南国花锦店)",
    "type": "咖啡馆",
    "lng": 106.713007,
    "lat": 26.582262,
    "rating": 4.3,
    "cost": 22.0,
    "address": "中华中路130号国贸广场南国花锦购物中心7FA层"
  },
  {
    "name": "灌木咖啡(南国花锦店)",
    "type": "咖啡馆",
    "lng": 106.712852,
    "lat": 26.582835,
    "rating": 4.3,
    "cost": 37.0,
    "address": "喷水池地铁站H口步行270米"
  },
  {
    "name": "ROOST CAFE",
    "type": "咖啡馆",
    "lng": 106.715392,
    "lat": 26.587798,
    "rating": 4.3,
    "cost": 60.0,
    "address": "陕西路虎门巷75号虎门巷小区"
  },
  {
    "name": "库迪咖啡(贵阳百盛购物中心店)",
    "type": "咖啡馆",
    "lng": 106.712223,
    "lat": 26.58234,
    "rating": 4.3,
    "cost": 13.0,
    "address": "中华中路117号贵阳百盛购物中心正门处(中国移动东侧)"
  },
  {
    "name": "南山烤肉(世纪南山店)",
    "type": "烧烤",
    "lng": 106.720825,
    "lat": 26.549525,
    "rating": 4.3,
    "cost": 27.0,
    "address": "南厂路494号世纪南山底商"
  },
  {
    "name": "倬餐厅(经典时代·花园广场店)",
    "type": "烧烤",
    "lng": 106.731008,
    "lat": 26.561136,
    "rating": 4.3,
    "cost": 65.0,
    "address": "宝山南路185号经典时代·花园广场"
  },
  {
    "name": "鸟与串烧鸟料理自助(新华路店)(暂停营业)",
    "type": "烧烤",
    "lng": 106.717334,
    "lat": 26.567071,
    "rating": 4.3,
    "cost": 123.0,
    "address": "新华巷51号兴隆社区(彭家巷)"
  },
  {
    "name": "馋猫牛肉工厂(新华店)",
    "type": "火锅",
    "lng": 106.719242,
    "lat": 26.561952,
    "rating": 4.3,
    "cost": 78.0,
    "address": "陈家坡67号1单元付1号(新华办事处)"
  },
  {
    "name": "红姐烧椒牛肉火锅店",
    "type": "火锅",
    "lng": 106.720625,
    "lat": 26.563525,
    "rating": 4.3,
    "cost": 27.0,
    "address": "市南巷与市南路交叉口东南40米"
  },
  {
    "name": "七叔家小肥猪地摊火锅青云路店",
    "type": "火锅",
    "lng": 106.718162,
    "lat": 26.564302,
    "rating": 4.3,
    "cost": 69.0,
    "address": "兴关路街道青云路1号1层"
  },
  {
    "name": "醉黔香(福楼旺邸店)",
    "type": "火锅",
    "lng": 106.729747,
    "lat": 26.560931,
    "rating": 4.3,
    "cost": 99.0,
    "address": "市南路110号8号楼"
  },
  {
    "name": "牛滚塘凯里酸汤牛肉(青云集市店)",
    "type": "火锅",
    "lng": 106.717209,
    "lat": 26.565312,
    "rating": 4.3,
    "cost": 49.0,
    "address": "电力巷与瑞金南路交叉口东北20米"
  },
  {
    "name": "三把釜美蛙鱼头(在水一方花园店)",
    "type": "火锅",
    "lng": 106.724808,
    "lat": 26.566367,
    "rating": 4.3,
    "cost": 58.0,
    "address": "南浦路16号"
  },
  {
    "name": "九架炉·菜市场老火锅(暂停营业)",
    "type": "火锅",
    "lng": 106.72471,
    "lat": 26.562788,
    "rating": 4.3,
    "cost": 73.0,
    "address": "九架炉巷2-3幢一层(大圣再往里走)"
  },
  {
    "name": "半亩花田私房菜江西小炒店",
    "type": "特色餐饮",
    "lng": 106.719629,
    "lat": 26.55989,
    "rating": 4.3,
    "cost": 41.0,
    "address": "南厂路都市新天地2号楼1层2号门面"
  },
  {
    "name": "南山原汤牛肉粉店",
    "type": "特色餐饮",
    "lng": 106.719975,
    "lat": 26.551575,
    "rating": 4.3,
    "cost": 16.0,
    "address": "南厂路居民委员会西南侧90米"
  },
  {
    "name": "瑞幸咖啡(贵阳保利国际广场店)",
    "type": "咖啡馆",
    "lng": 106.722624,
    "lat": 26.562681,
    "rating": 4.3,
    "cost": 17.0,
    "address": "市南路42号保利·国贸逸天城1F层"
  },
  {
    "name": "啡梵茶曼Coffee&Tea",
    "type": "咖啡馆",
    "lng": 106.726049,
    "lat": 26.566816,
    "rating": 4.3,
    "cost": 20.0,
    "address": "南浦路31号"
  },
  {
    "name": "瑞幸咖啡(贵阳鸿通城店)",
    "type": "咖啡馆",
    "lng": 106.708628,
    "lat": 26.558487,
    "rating": 4.3,
    "cost": 18.0,
    "address": "解放路100号鸿通城购物中心二层"
  },
  {
    "name": "新疆皇家烧烤(正宗贵阳一店)",
    "type": "烧烤",
    "lng": 106.698471,
    "lat": 26.585054,
    "rating": 4.3,
    "cost": 52.0,
    "address": "头桥社区服务中心枣山路87号旁"
  },
  {
    "name": "老贵阳铁签烤肉酱油烤鸡(威清路店)",
    "type": "烧烤",
    "lng": 106.700062,
    "lat": 26.584911,
    "rating": 4.3,
    "cost": 45.0,
    "address": "延安北巷与威清路交叉口南60米"
  },
  {
    "name": "遇平.烤鸡(贵州融合烧烤)",
    "type": "烧烤",
    "lng": 106.701852,
    "lat": 26.583881,
    "rating": 4.3,
    "cost": 42.0,
    "address": "威清门街道山林路阳光花园1-12号"
  },
  {
    "name": "夏老幺铁钎烤牛肉",
    "type": "烧烤",
    "lng": 106.702303,
    "lat": 26.589248,
    "rating": 4.3,
    "cost": 41.0,
    "address": "北新区路32号"
  }
]